{
  "title": "",
  "url": "http://lle.gov.wales/services/wfs",
  "version": "2.0.0",
  "featureTypes": [
    {
      "name": "inspire-wg:NAP_uk_w_agg_areas_2015",
      "title": "(Noise Action Plan) Agglomerations",
      "bbox": {
        "sw": {
          "lat": 0.0004617624450702351,
          "lon": -0.00003646314351376001
        },
        "ne": {
          "lat": 0.0004649249725474647,
          "lon": -0.000025864491399477433
        }
      },
      "epsg": 27700
    },
    {
      "name": "inspire-wg:NAP_r2industrylocations",
      "title": "(Noise Action Plan) Industry Locations",
      "bbox": {
        "sw": {
          "lat": 0.0004622191054721725,
          "lon": -0.000036179151568472346
        },
        "ne": {
          "lat": 0.00046450156423816225,
          "lon": -0.00002576359426282594
        }
      },
      "epsg": 27700
    },
    {
      "name": "inspire-wg:r3industrylocations_2017",
      "title": "(Noise Action Plan) Industry Locations, 2017",
      "bbox": {
        "sw": {
          "lat": 0.00046221009802138724,
          "lon": -0.00003623249127794633
        },
        "ne": {
          "lat": 0.00046450915789364444,
          "lon": -0.000026176940676376726
        }
      },
      "epsg": 27700
    },
    {
      "name": "inspire-wg:NAP_majorroadsr2",
      "title": "(Noise Action Plan) Major Roads",
      "bbox": {
        "sw": {
          "lat": 0.0004613093652636735,
          "lon": -0.00004642391885658962
        },
        "ne": {
          "lat": 0.00047930377961336035,
          "lon": -0.000023764881066055547
        }
      },
      "epsg": 27700
    },
    {
      "name": "inspire-wg:majorroadsr3_2017",
      "title": "(Noise Action Plan) Major Roads, 2017",
      "bbox": {
        "sw": {
          "lat": 0.0004613093652636735,
          "lon": -0.00004642391885658962
        },
        "ne": {
          "lat": 0.00047930377961336035,
          "lon": -0.000023764881066055547
        }
      },
      "epsg": 27700
    },
    {
      "name": "inspire-wg:NAP_priorityareas_railways",
      "title": "(Noise Action Plan) Priority Areas (Railways)",
      "bbox": {
        "sw": {
          "lat": 0.0004623425458873953,
          "lon": -0.00003425448826919416
        },
        "ne": {
          "lat": 0.00046379204543711694,
          "lon": -0.00002517321701462786
        }
      },
      "epsg": 27700
    },
    {
      "name": "inspire-wg:priorityareas_railways_2017",
      "title": "(Noise Action Plan) Priority Areas (Railways) 2017",
      "bbox": {
        "sw": {
          "lat": 0.0004623425458873953,
          "lon": -0.00003425448826919416
        },
        "ne": {
          "lat": 0.00046379204543711694,
          "lon": -0.00002517321701462786
        }
      },
      "epsg": 27700
    },
    {
      "name": "inspire-wg:NAP_priorityareas_roads",
      "title": "(Noise Action Plan) Priority Areas (Roads)",
      "bbox": {
        "sw": {
          "lat": 0.00046131009526106936,
          "lon": -0.00004638175044316571
        },
        "ne": {
          "lat": 0.00047898716242400496,
          "lon": -0.000023914573440119186
        }
      },
      "epsg": 27700
    },
    {
      "name": "inspire-wg:NAP_quietareas",
      "title": "(Noise Action Plan) Quiet Areas",
      "bbox": {
        "sw": {
          "lat": 0.00046193272920902473,
          "lon": -0.000036344524396738526
        },
        "ne": {
          "lat": 0.0004647550362903985,
          "lon": -0.000026271899031052837
        }
      },
      "epsg": 27700
    },
    {
      "name": "inspire-wg:mobile_coverage_5km_grid",
      "title": "5km grid showing priority areas with no mobile coverage",
      "bbox": {
        "sw": {
          "lat": 0.0004611293478404832,
          "lon": -0.00004923702448377249
        },
        "ne": {
          "lat": 0.0004805012760300542,
          "lon": -0.000023346067307639906
        }
      },
      "epsg": 27700
    },
    {
      "name": "appdata-wg-marine:abpmer_bottom_culture_blue_mussel",
      "title": "ABPMER - Aquaculture Potential - Bottom Culture - Blue Mussel",
      "bbox": {
        "sw": {
          "lat": 0.0004611506301017698,
          "lon": -0.00004909082265587862
        },
        "ne": {
          "lat": 0.0004807202617769235,
          "lon": -0.00002384002143237662
        }
      },
      "epsg": 32630
    },
    {
      "name": "appdata-wg-marine:abpmer_bottom_culture_european_clam",
      "title": "ABPMER - Aquaculture Potential - Bottom Culture - European Clam",
      "bbox": {
        "sw": {
          "lat": 0.00046143328232517433,
          "lon": -0.00004837307899642706
        },
        "ne": {
          "lat": 0.00048001094575056413,
          "lon": -0.00002382541375035297
        }
      },
      "epsg": 32630
    },
    {
      "name": "appdata-wg-marine:abpmer_bottom_culture_king_scallop",
      "title": "ABPMER - Aquaculture Potential - Bottom Culture - King Scallop",
      "bbox": {
        "sw": {
          "lat": 0.00046117238683507367,
          "lon": -0.00005033790752742305
        },
        "ne": {
          "lat": 0.00048121360424602244,
          "lon": -0.000028938162262398386
        }
      },
      "epsg": 32630
    },
    {
      "name": "appdata-wg-marine:abpmer_bottom_culture_oyster",
      "title": "ABPMER - Aquaculture Potential - Bottom Culture - Oyster",
      "bbox": {
        "sw": {
          "lat": 0.00046115333941543213,
          "lon": -0.000049027528252033496
        },
        "ne": {
          "lat": 0.00048032504658124253,
          "lon": -0.000024070955243795297
        }
      },
      "epsg": 32630
    },
    {
      "name": "appdata-wg-marine:abpmer_cage_culture_cod",
      "title": "ABPMER - Aquaculture Potential - Cage Culture - Cod",
      "bbox": {
        "sw": {
          "lat": 0.00046110100375074126,
          "lon": -0.000051552068202143345
        },
        "ne": {
          "lat": 0.0004807185364228417,
          "lon": -0.000029061511109917957
        }
      },
      "epsg": 32630
    },
    {
      "name": "appdata-wg-marine:abpmer_cage_culture_salmon_trout",
      "title": "ABPMER - Aquaculture Potential - Cage Culture - Salmon and Trout",
      "bbox": {
        "sw": {
          "lat": 0.0004610818489538815,
          "lon": -0.00005223554725242764
        },
        "ne": {
          "lat": 0.0004819725486555626,
          "lon": -0.000029058628663174085
        }
      },
      "epsg": 32630
    },
    {
      "name": "appdata-wg-marine:abpmer_ranching_lobsters",
      "title": "ABPMER - Aquaculture Potential - Ranching - Lobster",
      "bbox": {
        "sw": {
          "lat": 0.00046109226713042517,
          "lon": -0.00005204395795677011
        },
        "ne": {
          "lat": 0.00048020361309397686,
          "lon": -0.000029082674795812422
        }
      },
      "epsg": 32630
    },
    {
      "name": "appdata-wg-marine:abpmer_rope_culture_macroalgae_high",
      "title": "ABPMER - Aquaculture Potential - Rope Culture - Macro Algae - High Exposure",
      "bbox": {
        "sw": {
          "lat": 0.00046137782365462954,
          "lon": -0.000049510317536368705
        },
        "ne": {
          "lat": 0.00047992391812101687,
          "lon": -0.00003174728448378518
        }
      },
      "epsg": 32630
    },
    {
      "name": "appdata-wg-marine:abpmer_rope_culture_macroalgae_medium",
      "title": "ABPMER - Aquaculture Potential - Rope Culture - Macro Algae - Moderate Exposure",
      "bbox": {
        "sw": {
          "lat": 0.00046108930504829004,
          "lon": -0.000052087897918753624
        },
        "ne": {
          "lat": 0.0004807782397193705,
          "lon": -0.000026540935499118163
        }
      },
      "epsg": 32630
    },
    {
      "name": "appdata-wg-marine:abpmer_rope_culture_scallop",
      "title": "ABPMER - Aquaculture Potential - Rope Culture - Scallops",
      "bbox": {
        "sw": {
          "lat": 0.0004610818485701884,
          "lon": -0.00005223556420819897
        },
        "ne": {
          "lat": 0.0004819725556899357,
          "lon": -0.000029055391221124478
        }
      },
      "epsg": 32630
    },
    {
      "name": "appdata-wg-marine:abpmer_rope_culture_shellfish",
      "title": "ABPMER - Aquaculture Potential - Rope Culture - Shellfish",
      "bbox": {
        "sw": {
          "lat": 0.0004610578057508974,
          "lon": -0.00005226151030894382
        },
        "ne": {
          "lat": 0.0004819735946739456,
          "lon": -0.000023943895505487626
        }
      },
      "epsg": 32630
    },
    {
      "name": "appdata-wg-marine:abpmer_trestle_culture_shellfish",
      "title": "ABPMER - Aquaculture Potential - Trestle Culture - Shellfish",
      "bbox": {
        "sw": {
          "lat": 0.0004613135241271493,
          "lon": -0.00004881644796941628
        },
        "ne": {
          "lat": 0.0004801032748673606,
          "lon": -0.000023846226721769456
        }
      },
      "epsg": 32630
    },
    {
      "name": "appdata-wg-marine:abpmer_ranching_crawfish",
      "title": "ABPMER - Aquaculture Potential -Ranching - Crawfish",
      "bbox": {
        "sw": {
          "lat": 0.00046052233227555917,
          "lon": -0.00005214639365410819
        },
        "ne": {
          "lat": 0.0004807821185437433,
          "lon": -0.000029079435359682462
        }
      },
      "epsg": 32630
    },
    {
      "name": "appdata-wg-marine:abpmer_renewable_tide_np_range",
      "title": "ABPmer -  Renewable Tide Neap Range",
      "bbox": {
        "sw": {
          "lat": 0.0004539291538492307,
          "lon": -0.00006849292513920834
        },
        "ne": {
          "lat": 0.0004881041247841722,
          "lon": -0.000023844663433459303
        }
      },
      "epsg": 4326
    },
    {
      "name": "appdata-wg-marine:abpmer_renewable_tide_av_pow",
      "title": "ABPmer - Renewable Tide Average Power",
      "bbox": {
        "sw": {
          "lat": 0.0004539291538492307,
          "lon": -0.00006849292513920834
        },
        "ne": {
          "lat": 0.0004881041247841722,
          "lon": -0.000023844663433459303
        }
      },
      "epsg": 4326
    },
    {
      "name": "appdata-wg-marine:abpmer_renewable_tide_np_flow",
      "title": "ABPmer - Renewable Tide Neap Flow",
      "bbox": {
        "sw": {
          "lat": 0.0004539291538492307,
          "lon": -0.00006849292513920834
        },
        "ne": {
          "lat": 0.0004881041247841722,
          "lon": -0.000023844663433459303
        }
      },
      "epsg": 4326
    },
    {
      "name": "appdata-wg-marine:abpmer_renewable_tide_sp_flow",
      "title": "ABPmer - Renewable Tide Spring Flow",
      "bbox": {
        "sw": {
          "lat": 0.0004539291538492307,
          "lon": -0.00006849292513920834
        },
        "ne": {
          "lat": 0.0004881041247841722,
          "lon": -0.000023844663433459303
        }
      },
      "epsg": 4326
    },
    {
      "name": "appdata-wg-marine:abpmer_renewable_tide_sp_range",
      "title": "ABPmer - Renewable Tide Spring Range",
      "bbox": {
        "sw": {
          "lat": 0.0004539291538492307,
          "lon": -0.00006849292513920834
        },
        "ne": {
          "lat": 0.0004881041247841722,
          "lon": -0.000023844663433459303
        }
      },
      "epsg": 4326
    },
    {
      "name": "appdata-wg-marine:abpmer_renewable_wave_annual_power",
      "title": "ABPmer - Renewable Wave Annual Power",
      "bbox": {
        "sw": {
          "lat": 0.0004549867331178348,
          "lon": -0.00006607114072034366
        },
        "ne": {
          "lat": 0.00048724619091444765,
          "lon": -0.00002675482266010288
        }
      },
      "epsg": 4326
    },
    {
      "name": "appdata-wg-marine:abpmer_renewable_wave_au_height",
      "title": "ABPmer - Renewable Wave Autumn Height",
      "bbox": {
        "sw": {
          "lat": 0.0004549867331178348,
          "lon": -0.00006607114072034366
        },
        "ne": {
          "lat": 0.00048724619091444765,
          "lon": -0.00002675482266010288
        }
      },
      "epsg": 4326
    },
    {
      "name": "appdata-wg-marine:abpmer_renewable_wave_sp_height",
      "title": "ABPmer - Renewable Wave Spring Height",
      "bbox": {
        "sw": {
          "lat": 0.0004549867331178348,
          "lon": -0.00006607114072034366
        },
        "ne": {
          "lat": 0.00048724619091444765,
          "lon": -0.00002675482266010288
        }
      },
      "epsg": 4326
    },
    {
      "name": "appdata-wg-marine:abpmer_renewable_wave_su_height",
      "title": "ABPmer - Renewable Wave Summer Height",
      "bbox": {
        "sw": {
          "lat": 0.0004549867331178348,
          "lon": -0.00006607114072034366
        },
        "ne": {
          "lat": 0.00048724619091444765,
          "lon": -0.00002675482266010288
        }
      },
      "epsg": 4326
    },
    {
      "name": "appdata-wg-marine:abpmer_renewable_wave_wi_height",
      "title": "ABPmer - Renewable Wave Winter Height",
      "bbox": {
        "sw": {
          "lat": 0.0004549867331178348,
          "lon": -0.00006607114072034366
        },
        "ne": {
          "lat": 0.00048724619091444765,
          "lon": -0.00002675482266010288
        }
      },
      "epsg": 4326
    },
    {
      "name": "appdata-wg-marine:abpmer_renewable_wind_annual_power",
      "title": "ABPmer - Renewable Wind Annual Power",
      "bbox": {
        "sw": {
          "lat": 0.0004539786025787862,
          "lon": -0.00006848599015097199
        },
        "ne": {
          "lat": 0.00048825432145349623,
          "lon": -0.00002523822768787892
        }
      },
      "epsg": 4326
    },
    {
      "name": "appdata-wg-marine:abpmer_renewable_wind_speed_autumn",
      "title": "ABPmer - Renewable Wind Speed Autumn",
      "bbox": {
        "sw": {
          "lat": 0.0004539786025787862,
          "lon": -0.00006848599015097199
        },
        "ne": {
          "lat": 0.00048825432145349623,
          "lon": -0.00002523822768787892
        }
      },
      "epsg": 4326
    },
    {
      "name": "appdata-wg-marine:abpmer_renewable_wind_speed_spring",
      "title": "ABPmer - Renewable Wind Speed Spring",
      "bbox": {
        "sw": {
          "lat": 0.0004539786025787862,
          "lon": -0.00006848599015097199
        },
        "ne": {
          "lat": 0.00048825432145349623,
          "lon": -0.00002523822768787892
        }
      },
      "epsg": 4326
    },
    {
      "name": "appdata-wg-marine:abpmer_renewable_wind_speed_summer",
      "title": "ABPmer - Renewable Wind Speed Summer",
      "bbox": {
        "sw": {
          "lat": 0.0004539786025787862,
          "lon": -0.00006848599015097199
        },
        "ne": {
          "lat": 0.00048825432145349623,
          "lon": -0.00002523822768787892
        }
      },
      "epsg": 4326
    },
    {
      "name": "appdata-wg-marine:abpmer_renewable_wind_speed_winter",
      "title": "ABPmer - Renewable Wind Speed Winter",
      "bbox": {
        "sw": {
          "lat": 0.0004539786025787862,
          "lon": -0.00006848599015097199
        },
        "ne": {
          "lat": 0.00048825432145349623,
          "lon": -0.00002523822768787892
        }
      },
      "epsg": 4326
    },
    {
      "name": "appdata-wg-marine:ais_density_grid_2015_all",
      "title": "AIS Density Grid 2015 ALL",
      "bbox": {
        "sw": {
          "lat": 0.0004464890221669293,
          "lon": -0.00008854855292421146
        },
        "ne": {
          "lat": 0.0004950762452722302,
          "lon": -0.000013131871748895308
        }
      },
      "epsg": 32630
    },
    {
      "name": "appdata-wg-marine:ais_density_grid_2015_st0",
      "title": "AIS Density Grid 2015 ST0",
      "bbox": {
        "sw": {
          "lat": 0.0004464890221669293,
          "lon": -0.00008854855292421146
        },
        "ne": {
          "lat": 0.0004950762452722302,
          "lon": -0.000013131871748895308
        }
      },
      "epsg": 32630
    },
    {
      "name": "appdata-wg-marine:ais_density_grid_2015_st1",
      "title": "AIS Density Grid 2015 ST1",
      "bbox": {
        "sw": {
          "lat": 0.0004464890221669293,
          "lon": -0.00008854855292421146
        },
        "ne": {
          "lat": 0.0004950762452722302,
          "lon": -0.000013131871748895308
        }
      },
      "epsg": 32630
    },
    {
      "name": "appdata-wg-marine:ais_density_grid_2015_st10",
      "title": "AIS Density Grid 2015 ST10",
      "bbox": {
        "sw": {
          "lat": 0.0004464890221669293,
          "lon": -0.00008854855292421146
        },
        "ne": {
          "lat": 0.0004950762452722302,
          "lon": -0.000013131871748895308
        }
      },
      "epsg": 32630
    },
    {
      "name": "appdata-wg-marine:ais_density_grid_2015_st2",
      "title": "AIS Density Grid 2015 ST2",
      "bbox": {
        "sw": {
          "lat": 0.0004464890221669293,
          "lon": -0.00008854855292421146
        },
        "ne": {
          "lat": 0.0004950762452722302,
          "lon": -0.000013131871748895308
        }
      },
      "epsg": 32630
    },
    {
      "name": "appdata-wg-marine:ais_density_grid_2015_st3",
      "title": "AIS Density Grid 2015 ST3",
      "bbox": {
        "sw": {
          "lat": 0.0004464890221669293,
          "lon": -0.00008854855292421146
        },
        "ne": {
          "lat": 0.0004950762452722302,
          "lon": -0.000013131871748895308
        }
      },
      "epsg": 32630
    },
    {
      "name": "appdata-wg-marine:ais_density_grid_2015_st4",
      "title": "AIS Density Grid 2015 ST4",
      "bbox": {
        "sw": {
          "lat": 0.0004464890221669293,
          "lon": -0.00008854855292421146
        },
        "ne": {
          "lat": 0.0004950762452722302,
          "lon": -0.000013131871748895308
        }
      },
      "epsg": 32630
    },
    {
      "name": "appdata-wg-marine:ais_density_grid_2015_st5",
      "title": "AIS Density Grid 2015 ST5",
      "bbox": {
        "sw": {
          "lat": 0.0004464890221669293,
          "lon": -0.00008854855292421146
        },
        "ne": {
          "lat": 0.0004950762452722302,
          "lon": -0.000013131871748895308
        }
      },
      "epsg": 32630
    },
    {
      "name": "appdata-wg-marine:ais_density_grid_2015_st6",
      "title": "AIS Density Grid 2015 ST6",
      "bbox": {
        "sw": {
          "lat": 0.0004464890221669293,
          "lon": -0.00008854855292421146
        },
        "ne": {
          "lat": 0.0004950762452722302,
          "lon": -0.000013131871748895308
        }
      },
      "epsg": 32630
    },
    {
      "name": "appdata-wg-marine:ais_density_grid_2015_st7",
      "title": "AIS Density Grid 2015 ST7",
      "bbox": {
        "sw": {
          "lat": 0.0004464890221669293,
          "lon": -0.00008854855292421146
        },
        "ne": {
          "lat": 0.0004950762452722302,
          "lon": -0.000013131871748895308
        }
      },
      "epsg": 32630
    },
    {
      "name": "appdata-wg-marine:ais_density_grid_2015_st8",
      "title": "AIS Density Grid 2015 ST8",
      "bbox": {
        "sw": {
          "lat": 0.0004464890221669293,
          "lon": -0.00008854855292421146
        },
        "ne": {
          "lat": 0.0004950762452722302,
          "lon": -0.000013131871748895308
        }
      },
      "epsg": 32630
    },
    {
      "name": "appdata-wg-marine:ais_density_grid_2015_st9",
      "title": "AIS Density Grid 2015 ST9",
      "bbox": {
        "sw": {
          "lat": 0.0004464890221669293,
          "lon": -0.00008854855292421146
        },
        "ne": {
          "lat": 0.0004950762452722302,
          "lon": -0.000013131871748895308
        }
      },
      "epsg": 32630
    },
    {
      "name": "appdata-wg-marine:ais_transit_lines_marapr2015",
      "title": "AIS Transit Line MarApr 2015",
      "bbox": {
        "sw": {
          "lat": 0.0004294370795321356,
          "lon": -0.00009872628958414318
        },
        "ne": {
          "lat": 0.0005034576097671106,
          "lon": 0.000001562199856337453
        }
      },
      "epsg": 32630
    },
    {
      "name": "appdata-wg-marine:ais_transit_lines_mayjun2015",
      "title": "AIS Transit Line MayJun 2015",
      "bbox": {
        "sw": {
          "lat": 0.00043273364680374016,
          "lon": -0.00007853143352222898
        },
        "ne": {
          "lat": 0.000501320145048112,
          "lon": -0.000021316956810217496
        }
      },
      "epsg": 32630
    },
    {
      "name": "appdata-wg-marine:ais_transit_lines_janfeb2015",
      "title": "AIS Transit Lines JanFeb 2015",
      "bbox": {
        "sw": {
          "lat": 0.00043697135529896514,
          "lon": -0.00009248852025381259
        },
        "ne": {
          "lat": 0.000536345791189774,
          "lon": 0.00003832029778078291
        }
      },
      "epsg": 32630
    },
    {
      "name": "appdata-wg-marine:ais_transit_lines_julaug2015",
      "title": "AIS Transit Lines JulAug 2015",
      "bbox": {
        "sw": {
          "lat": 0.00043024774468847227,
          "lon": -0.00009674534451182053
        },
        "ne": {
          "lat": 0.0005318268519829417,
          "lon": 0.00002769112973795788
        }
      },
      "epsg": 32630
    },
    {
      "name": "appdata-wg-marine:ais_transit_lines_novdec2015",
      "title": "AIS Transit Lines NovDec 2015",
      "bbox": {
        "sw": {
          "lat": 0.0004293747840335982,
          "lon": -0.00009799035957610874
        },
        "ne": {
          "lat": 0.0005316462133038158,
          "lon": 0.000034770426309176654
        }
      },
      "epsg": 32630
    },
    {
      "name": "appdata-wg-marine:ais_transit_lines_sepoct2015",
      "title": "AIS Transit Lines SepOct 2015",
      "bbox": {
        "sw": {
          "lat": 0.0004297145887477427,
          "lon": -0.0000885292980245929
        },
        "ne": {
          "lat": 0.0005138098573809202,
          "lon": 0.00001938136789087902
        }
      },
      "epsg": 32630
    },
    {
      "name": "inspire-wg:activetravelDLs",
      "title": "Active Travel Designated Localities",
      "bbox": {
        "sw": {
          "lat": 0.00046119759983298536,
          "lon": -0.00004668991853988722
        },
        "ne": {
          "lat": 0.0004801316377012199,
          "lon": -0.000023673172016571823
        }
      },
      "epsg": 27700
    },
    {
      "name": "inspire-wg:activetravel_routesection_approvedroutes",
      "title": "Active Travel Route Sections - Approved Routes",
      "bbox": {
        "sw": {
          "lat": 0.000461195372551515,
          "lon": -0.00004689293694659534
        },
        "ne": {
          "lat": 0.0004800895124219551,
          "lon": -0.00002384169069785742
        }
      },
      "epsg": 27700
    },
    {
      "name": "appdata-wg-marine:draft_aggregates_sra",
      "title": "Aggregates SRA",
      "bbox": {
        "sw": {
          "lat": 0.0004609608580778968,
          "lon": -0.000043883626678384966
        },
        "ne": {
          "lat": 0.00048097888085862905,
          "lon": -0.000024333614721885058
        }
      },
      "epsg": 4326
    },
    {
      "name": "inspire-wg:AgriculturalSmallAreas",
      "title": "Agricultural Small Areas",
      "bbox": {
        "sw": {
          "lat": 0.00046253945829732857,
          "lon": -0.0000523661155205276
        },
        "ne": {
          "lat": 0.00048031096463319045,
          "lon": -0.00002413535134796504
        }
      },
      "epsg": 27700
    },
    {
      "name": "inspire-wg:aq_mapbz2016g_grid",
      "title": "Air Quality - Benzene (2016)",
      "bbox": {
        "sw": {
          "lat": 0.00046051235689503756,
          "lon": -0.00004965961079482745
        },
        "ne": {
          "lat": 0.0004808768619284365,
          "lon": -0.000023391692542009857
        }
      },
      "epsg": 27700
    },
    {
      "name": "inspire-wg:aq_mapno22016g_grid",
      "title": "Air Quality - NO2 (2016)",
      "bbox": {
        "sw": {
          "lat": 0.00046051235689503756,
          "lon": -0.00004965961079482745
        },
        "ne": {
          "lat": 0.0004808768619284365,
          "lon": -0.000023391692542009857
        }
      },
      "epsg": 27700
    },
    {
      "name": "inspire-wg:aq_mapnox2016g_grid",
      "title": "Air Quality - NOX (2016)",
      "bbox": {
        "sw": {
          "lat": 0.00046051235689503756,
          "lon": -0.00004965961079482745
        },
        "ne": {
          "lat": 0.0004808768619284365,
          "lon": -0.000023391692542009857
        }
      },
      "epsg": 27700
    },
    {
      "name": "inspire-wg:aq_mapdgt2016g_grid",
      "title": "Air Quality - Ozone (2016)",
      "bbox": {
        "sw": {
          "lat": 0.00046051235689503756,
          "lon": -0.00004965961079482745
        },
        "ne": {
          "lat": 0.0004808768619284365,
          "lon": -0.000023391692542009857
        }
      },
      "epsg": 27700
    },
    {
      "name": "inspire-wg:aq_mappm102016g_grid",
      "title": "Air Quality - PM10 (2016)",
      "bbox": {
        "sw": {
          "lat": 0.00046051235689503756,
          "lon": -0.00004965961079482745
        },
        "ne": {
          "lat": 0.0004808768619284365,
          "lon": -0.000023391692542009857
        }
      },
      "epsg": 27700
    },
    {
      "name": "inspire-wg:aq_mappm252016g_grid",
      "title": "Air Quality - PM2_5 (2016)",
      "bbox": {
        "sw": {
          "lat": 0.00046051235689503756,
          "lon": -0.00004965961079482745
        },
        "ne": {
          "lat": 0.0004808768619284365,
          "lon": -0.000023391692542009857
        }
      },
      "epsg": 27700
    },
    {
      "name": "inspire-wg:aq_mapso22016_grid",
      "title": "Air Quality - SO2 (2016)",
      "bbox": {
        "sw": {
          "lat": 0.00046051235689503756,
          "lon": -0.00004965961079482745
        },
        "ne": {
          "lat": 0.0004808768619284365,
          "lon": -0.000023391692542009857
        }
      },
      "epsg": 27700
    },
    {
      "name": "inspire-wg:aqmas",
      "title": "Air Quality Management Areas",
      "bbox": {
        "sw": {
          "lat": 0.00046213891108948246,
          "lon": -0.00004511489602374184
        },
        "ne": {
          "lat": 0.0004717627616344089,
          "lon": -0.00002402652608729879
        }
      },
      "epsg": 27700
    },
    {
      "name": "inspire-wg:NAP_napst_aqmas_apr14",
      "title": "Air Quality Mngt. Areas (April 2014)",
      "bbox": {
        "sw": {
          "lat": 0.0004618399799767303,
          "lon": -0.00004511489613808908
        },
        "ne": {
          "lat": 0.0004717627620323128,
          "lon": -0.000024022325978176494
        }
      },
      "epsg": 27700
    },
    {
      "name": "appdata-wg-marine:ports_wales",
      "title": "All Ports in Wales",
      "bbox": {
        "sw": {
          "lat": 0.00046123769706696294,
          "lon": -0.00004859770772173188
        },
        "ne": {
          "lat": 0.0004801051244385235,
          "lon": -0.000026662010951239976
        }
      },
      "epsg": 27700
    },
    {
      "name": "appdata-wg-marine:ports_wales_pol",
      "title": "All Ports in Wales",
      "bbox": {
        "sw": {
          "lat": 0.0004613319709250163,
          "lon": -0.000048484044389563984
        },
        "ne": {
          "lat": 0.00048001265980701646,
          "lon": -0.000026765769005636116
        }
      },
      "epsg": 27700
    },
    {
      "name": "appdata-wg-marine:all_wales_sector_policies",
      "title": "All Wales Sector Policies",
      "bbox": {
        "sw": {
          "lat": 0.0004576182289213193,
          "lon": -0.000063304322058692
        },
        "ne": {
          "lat": 0.00048494258210496355,
          "lon": -0.00002386399315015695
        }
      },
      "epsg": 4326
    },
    {
      "name": "inspire-wg:Raptor_persecution_all_confirmed_Incidents_by10km_square_2013_count3",
      "title": "All confirmed incidents - Counts 2013 by 10km square",
      "bbox": {
        "sw": {
          "lat": 0.0004498922113214121,
          "lon": -0.00005651448053079303
        },
        "ne": {
          "lat": 0.0004969452916441242,
          "lon": 0.000019145080220422963
        }
      },
      "epsg": 27700
    },
    {
      "name": "inspire-wg:All_Schools_Wales",
      "title": "All_Schools_Wales",
      "bbox": {
        "sw": {
          "lat": 0.0004613066589342907,
          "lon": -0.00004831082803630544
        },
        "ne": {
          "lat": 0.0004799948295044487,
          "lon": -0.000023960495911717586
        }
      },
      "epsg": 27700
    },
    {
      "name": "appdata-wg-marine:All_Wales_MPA_General_Policies",
      "title": "All_Wales_MPA_General_Policies",
      "bbox": {
        "sw": {
          "lat": 0.0004574815812077304,
          "lon": -0.00006350152411246503
        },
        "ne": {
          "lat": 0.0004850792191319897,
          "lon": -0.00002366679105142379
        }
      },
      "epsg": 4326
    },
    {
      "name": "inspire-wg:Ambulance_Stations",
      "title": "Ambulance_Stations",
      "bbox": {
        "sw": {
          "lat": 0.000461566712672834,
          "lon": -0.00004620727613955852
        },
        "ne": {
          "lat": 0.00047995446031734446,
          "lon": -0.00002435903211258315
        }
      },
      "epsg": 27700
    },
    {
      "name": "appdata-wg:vwAnchorCompanies",
      "title": "Anchor Companies",
      "bbox": {
        "sw": {
          "lat": 0.00046175960657990345,
          "lon": -0.00004513546607772248
        },
        "ne": {
          "lat": 0.00047837266130557055,
          "lon": -0.0000010955224165318312
        }
      },
      "epsg": 4326
    },
    {
      "name": "inspire-wg:anchorcompanies",
      "title": "Anchor Companies",
      "bbox": {
        "sw": {
          "lat": 0.00046139978678638727,
          "lon": -0.00004625492397986388
        },
        "ne": {
          "lat": 0.000478550755403262,
          "lon": -0.00001637391290874225
        }
      },
      "epsg": 27700
    },
    {
      "name": "inspire-wg:assembly_constituencies",
      "title": "Assembly Constituencies",
      "bbox": {
        "sw": {
          "lat": 0.00046104552782821884,
          "lon": -0.000052222431860791325
        },
        "ne": {
          "lat": 0.0004802284761069586,
          "lon": -0.00002374713766283947
        }
      },
      "epsg": 27700
    },
    {
      "name": "inspire-wg:Assembly_Constituencies",
      "title": "Assembly Constituencies",
      "bbox": {
        "sw": {
          "lat": 0.00046104552782821884,
          "lon": -0.00005222243186079138
        },
        "ne": {
          "lat": 0.0004802284761069586,
          "lon": -0.000023747137662839486
        }
      },
      "epsg": 27700
    },
    {
      "name": "inspire-wg:assembly_electoral_regions",
      "title": "Assembly Electoral Regions",
      "bbox": {
        "sw": {
          "lat": 0.00046104552782821884,
          "lon": -0.000052222431860791325
        },
        "ne": {
          "lat": 0.0004802284761069586,
          "lon": -0.00002374713766283947
        }
      },
      "epsg": 27700
    },
    {
      "name": "inspire-wg:Assembly_Electoral_Regions",
      "title": "Assembly Electoral Regions",
      "bbox": {
        "sw": {
          "lat": 0.00046104552782821884,
          "lon": -0.00005222243186079138
        },
        "ne": {
          "lat": 0.0004802284761069586,
          "lon": -0.000023747137662839486
        }
      },
      "epsg": 27700
    },
    {
      "name": "inspire-wg:BGS_Coalfield_Boundaries",
      "title": "BGS Coalfield Boundaries",
      "bbox": {
        "sw": {
          "lat": 0.0004625191330518419,
          "lon": -0.00004714003439683154
        },
        "ne": {
          "lat": 0.0004801459752457049,
          "lon": -0.00002356830479061523
        }
      },
      "epsg": 27700
    },
    {
      "name": "inspire-wg:BGS_Quarries",
      "title": "BGS Quarries",
      "bbox": {
        "sw": {
          "lat": 0.00046128117905652744,
          "lon": -0.00004822242699825436
        },
        "ne": {
          "lat": 0.0004798789959181704,
          "lon": -0.000023764530011140816
        }
      },
      "epsg": 27700
    },
    {
      "name": "inspire-wg:buasd_populations_2015",
      "title": "BUASD Populations 2015",
      "bbox": {
        "sw": {
          "lat": 0.0004611455004663867,
          "lon": -0.000048552407573047474
        },
        "ne": {
          "lat": 0.0004801966265262081,
          "lon": -0.00002366427074590227
        }
      },
      "epsg": 27700
    },
    {
      "name": "inspire-wg:BasicPaymentSchemeRegions",
      "title": "Basic Payment Scheme Regions",
      "bbox": {
        "sw": {
          "lat": 0.00046104937852931016,
          "lon": -0.00005222017444900597
        },
        "ne": {
          "lat": 0.0004802256915183989,
          "lon": -0.000023747074901015364
        }
      },
      "epsg": 27700
    },
    {
      "name": "appdata-wg-marine:rspb_ud_blki",
      "title": "Black-legged Kittiwake 95% Utilisation Distributions in 5% Bands",
      "bbox": {
        "sw": {
          "lat": 0.00046032348498670217,
          "lon": -0.00005480960189919071
        },
        "ne": {
          "lat": 0.0004849373464423934,
          "lon": -0.000027880188328955814
        }
      },
      "epsg": 4326
    },
    {
      "name": "appdata-wg-marine:blue_flag_beaches",
      "title": "Blue Flag Beaches 2014",
      "bbox": {
        "sw": {
          "lat": 0.00046201646516408346,
          "lon": -0.000048650802882620315
        },
        "ne": {
          "lat": 0.0004793345875242494,
          "lon": -0.00003302241266155624
        }
      },
      "epsg": 27700
    },
    {
      "name": "appdata-wg:wales_brma",
      "title": "Broad Rental Market Area",
      "bbox": {
        "sw": {
          "lat": 0.00046110013857969534,
          "lon": -0.00005046779041175763
        },
        "ne": {
          "lat": 0.00048023620939829925,
          "lon": -0.00002203920686581839
        }
      },
      "epsg": 27700
    },
    {
      "name": "inspire-wg:bua_2011_wales",
      "title": "Built Up Areas Wales 2011",
      "bbox": {
        "sw": {
          "lat": 0.0004611459606280732,
          "lon": -0.00004855164088123091
        },
        "ne": {
          "lat": 0.0004801966608312114,
          "lon": -0.000023664018715494136
        }
      },
      "epsg": 27700
    },
    {
      "name": "inspire-wg:cadw_whs_arcs_of_view",
      "title": "CADW - World Heritage Sites (Arcs of view)",
      "bbox": {
        "sw": {
          "lat": 0.000474774684988688,
          "lon": -0.000038537906779793106
        },
        "ne": {
          "lat": 0.0004786407372847634,
          "lon": -0.000034175720693666336
        }
      },
      "epsg": 27700
    },
    {
      "name": "inspire-wg:cadw_whs_essential_setting",
      "title": "CADW - World Heritage Sites (Essential Setting)",
      "bbox": {
        "sw": {
          "lat": 0.00047477245567506543,
          "lon": -0.000038571364207692265
        },
        "ne": {
          "lat": 0.0004787845749376629,
          "lon": -0.00002731834845975707
        }
      },
      "epsg": 27700
    },
    {
      "name": "inspire-wg:cadw_whs_significant_view",
      "title": "CADW - World Heritage Sites (Significant View)",
      "bbox": {
        "sw": {
          "lat": 0.0004747292633737743,
          "lon": -0.00003862476839218673
        },
        "ne": {
          "lat": 0.00047871016444389625,
          "lon": -0.00003402724273638894
        }
      },
      "epsg": 27700
    },
    {
      "name": "inspire-wg:cadw_whs_boundary",
      "title": "CADW - World Heritage Sites boundary",
      "bbox": {
        "sw": {
          "lat": 0.0004647027642477042,
          "lon": -0.00003849853816628307
        },
        "ne": {
          "lat": 0.000478731952583189,
          "lon": -0.000027105766928152646
        }
      },
      "epsg": 27700
    },
    {
      "name": "inspire-wg:CADW_Historic_Parks_Gardens",
      "title": "CADW_Historic_Parks_Gardens",
      "bbox": {
        "sw": {
          "lat": 0.000461280981809864,
          "lon": -0.00004837998062363752
        },
        "ne": {
          "lat": 0.0004800174447723293,
          "lon": -0.000023920231021576186
        }
      },
      "epsg": 27700
    },
    {
      "name": "inspire-wg:wales_co2_emissions_2005_dom_total",
      "title": "CO2_Emissions_2005_Domestic",
      "bbox": {
        "sw": {
          "lat": 0.0004610493891874512,
          "lon": -0.00005222234702757841
        },
        "ne": {
          "lat": 0.0004802276770021763,
          "lon": -0.00002374719203886492
        }
      },
      "epsg": 27700
    },
    {
      "name": "inspire-wg:wales_co2_emissions_2005_grand_total",
      "title": "CO2_Emissions_2005_Grand_Total",
      "bbox": {
        "sw": {
          "lat": 0.0004610493891874512,
          "lon": -0.00005222234702757841
        },
        "ne": {
          "lat": 0.0004802276770021763,
          "lon": -0.00002374719203886492
        }
      },
      "epsg": 27700
    },
    {
      "name": "inspire-wg:wales_co2_emissions_2005_ic_total",
      "title": "CO2_Emissions_2005_Industrial_Commercial",
      "bbox": {
        "sw": {
          "lat": 0.0004610493891874512,
          "lon": -0.00005222234702757841
        },
        "ne": {
          "lat": 0.0004802276770021763,
          "lon": -0.00002374719203886492
        }
      },
      "epsg": 27700
    },
    {
      "name": "inspire-wg:wales_co2_emissions_2005_transport_total",
      "title": "CO2_Emissions_2005_Transport",
      "bbox": {
        "sw": {
          "lat": 0.0004610493891874512,
          "lon": -0.00005222234702757841
        },
        "ne": {
          "lat": 0.0004802276770021763,
          "lon": -0.00002374719203886492
        }
      },
      "epsg": 27700
    },
    {
      "name": "inspire-wg:wales_co2_emissions_2010_dom_total",
      "title": "CO2_Emissions_2010_Domestic",
      "bbox": {
        "sw": {
          "lat": 0.0004610493891874512,
          "lon": -0.00005222234702757841
        },
        "ne": {
          "lat": 0.0004802276770021763,
          "lon": -0.00002374719203886492
        }
      },
      "epsg": 27700
    },
    {
      "name": "inspire-wg:wales_co2_emissions_2010_grand_total",
      "title": "CO2_Emissions_2010_Grand_Total",
      "bbox": {
        "sw": {
          "lat": 0.0004610493891874512,
          "lon": -0.00005222234702757841
        },
        "ne": {
          "lat": 0.0004802276770021763,
          "lon": -0.00002374719203886492
        }
      },
      "epsg": 27700
    },
    {
      "name": "inspire-wg:wales_co2_emissions_2010_ic_total",
      "title": "CO2_Emissions_2010_Industrial_Commercial",
      "bbox": {
        "sw": {
          "lat": 0.0004610493891874512,
          "lon": -0.00005222234702757841
        },
        "ne": {
          "lat": 0.0004802276770021763,
          "lon": -0.00002374719203886492
        }
      },
      "epsg": 27700
    },
    {
      "name": "inspire-wg:wales_co2_emissions_2010_transport_total",
      "title": "CO2_Emissions_2010_Transport",
      "bbox": {
        "sw": {
          "lat": 0.0004610493891874512,
          "lon": -0.00005222234702757841
        },
        "ne": {
          "lat": 0.0004802276770021763,
          "lon": -0.00002374719203886492
        }
      },
      "epsg": 27700
    },
    {
      "name": "inspire-wg:wales_co2_emissions_2015_dom_total",
      "title": "CO2_Emissions_2015_Domestic",
      "bbox": {
        "sw": {
          "lat": 0.0004610493891874512,
          "lon": -0.00005222234702757841
        },
        "ne": {
          "lat": 0.0004802276770021763,
          "lon": -0.00002374719203886492
        }
      },
      "epsg": 27700
    },
    {
      "name": "inspire-wg:wales_co2_emissions_2015_grand_total",
      "title": "CO2_Emissions_2015_Grand_Total",
      "bbox": {
        "sw": {
          "lat": 0.0004610493891874512,
          "lon": -0.00005222234702757841
        },
        "ne": {
          "lat": 0.0004802276770021763,
          "lon": -0.00002374719203886492
        }
      },
      "epsg": 27700
    },
    {
      "name": "inspire-wg:wales_co2_emissions_2015_ic_total",
      "title": "CO2_Emissions_2015_Industrial_Commercial",
      "bbox": {
        "sw": {
          "lat": 0.0004610493891874512,
          "lon": -0.00005222234702757841
        },
        "ne": {
          "lat": 0.0004802276770021763,
          "lon": -0.00002374719203886492
        }
      },
      "epsg": 27700
    },
    {
      "name": "inspire-wg:wales_co2_emissions_2015_transport_total",
      "title": "CO2_Emissions_2015_Transport",
      "bbox": {
        "sw": {
          "lat": 0.0004610493891874512,
          "lon": -0.00005222234702757841
        },
        "ne": {
          "lat": 0.0004802276770021763,
          "lon": -0.00002374719203886492
        }
      },
      "epsg": 27700
    },
    {
      "name": "inspire-wg:Cadw_HistoricLandscapes",
      "title": "Cadw Historic Landscapes",
      "bbox": {
        "sw": {
          "lat": 0.0004614297928213773,
          "lon": -0.00004919137668518844
        },
        "ne": {
          "lat": 0.00048006609672768263,
          "lon": -0.000023495157189627936
        }
      },
      "epsg": 27700
    },
    {
      "name": "inspire-wg:Cadw_DesignatedWrecks",
      "title": "Cadw_DesignatedWrecks",
      "bbox": {
        "sw": {
          "lat": 0.0004646007156736687,
          "lon": -0.00005222409370415649
        },
        "ne": {
          "lat": 0.0004800662841830672,
          "lon": -0.0000313817864730436
        }
      },
      "epsg": 27700
    },
    {
      "name": "inspire-wg:Cadw_ListedBuildings",
      "title": "Cadw_ListedBuildings",
      "bbox": {
        "sw": {
          "lat": 0.0004610556226936069,
          "lon": -0.00005221025193514021
        },
        "ne": {
          "lat": 0.00048014096157089625,
          "lon": -0.000023879825016185468
        }
      },
      "epsg": 27700
    },
    {
      "name": "inspire-wg:Cadw_SAM",
      "title": "Cadw_SAM",
      "bbox": {
        "sw": {
          "lat": 0.00046114548788978027,
          "lon": -0.000048874744420159006
        },
        "ne": {
          "lat": 0.00048017374625430875,
          "lon": -0.00002391346633038344
        }
      },
      "epsg": 27700
    },
    {
      "name": "inspire-wg:SKH_Carbon_Mitigation_En_Cy_Agri",
      "title": "Carbon Mitigation (Agri and Land Use)",
      "bbox": {
        "sw": {
          "lat": -0.00022457882101889481,
          "lon": -0.0007006859216132266
        },
        "ne": {
          "lat": 0.00048059867700089853,
          "lon": 0.0012396750920849395
        }
      },
      "epsg": 4326
    },
    {
      "name": "inspire-wg:SKH_Carbon_Mitigation_En_Cy_Air_Quality",
      "title": "Carbon Mitigation (Air Quality)",
      "bbox": {
        "sw": {
          "lat": 0.0004850893550951696,
          "lon": -0.000008984051156479334
        },
        "ne": {
          "lat": 0.0004850911517308987,
          "lon": -0.000008982254525911095
        }
      },
      "epsg": 4326
    },
    {
      "name": "inspire-wg:SKH_Carbon_Mitigation_En_Cy_Business",
      "title": "Carbon Mitigation (Business)",
      "bbox": {
        "sw": {
          "lat": -0.00029195246733593194,
          "lon": -0.0010779783409434257
        },
        "ne": {
          "lat": 0.0005075481355163447,
          "lon": 0.0012217087864025492
        }
      },
      "epsg": 4326
    },
    {
      "name": "inspire-wg:SKH_Carbon_Mitigation_En_Cy_CAP_Trade",
      "title": "Carbon Mitigation (CAP and Trade)",
      "bbox": {
        "sw": {
          "lat": 0.0003997494031153792,
          "lon": -0.0007186531256109012
        },
        "ne": {
          "lat": 0.00039975119973689743,
          "lon": -0.000718651328980333
        }
      },
      "epsg": 4326
    },
    {
      "name": "inspire-wg:SKH_Carbon_Mitigation_En_Cy_Energy",
      "title": "Carbon Mitigation (Energy)",
      "bbox": {
        "sw": {
          "lat": -0.00035034296080027616,
          "lon": -0.0010779783409434257
        },
        "ne": {
          "lat": 0.0005389891704652428,
          "lon": 0.0015990012057327482
        }
      },
      "epsg": 4326
    },
    {
      "name": "inspire-wg:SKH_Carbon_Mitigation_En_Cy_Health",
      "title": "Carbon Mitigation (Health)",
      "bbox": {
        "sw": {
          "lat": 0.0003683092664914511,
          "lon": -0.0006647533102484459
        },
        "ne": {
          "lat": 0.00048059867700089853,
          "lon": -0.000004491576420597607
        }
      },
      "epsg": 4326
    },
    {
      "name": "inspire-wg:SKH_Carbon_Mitigation_En_Cy_Heating",
      "title": "Carbon Mitigation (Heating)",
      "bbox": {
        "sw": {
          "lat": 0.00042834277863335046,
          "lon": 0.00013395587685261892
        },
        "ne": {
          "lat": 0.00042834457524065783,
          "lon": 0.00013395767348318714
        }
      },
      "epsg": 4326
    },
    {
      "name": "inspire-wg:SKH_Carbon_Mitigation_En_Cy_Housing",
      "title": "Carbon Mitigation (Housing)",
      "bbox": {
        "sw": {
          "lat": -0.00026949458522551595,
          "lon": -0.0010779783409434257
        },
        "ne": {
          "lat": 0.0004761071005816575,
          "lon": 0.0012396750920849395
        }
      },
      "epsg": 4326
    },
    {
      "name": "inspire-wg:SKH_Carbon_Mitigation_En_Cy_International",
      "title": "Carbon Mitigation (International)",
      "bbox": {
        "sw": {
          "lat": 0.00008957011867494202,
          "lon": -0.0007541006467222576
        },
        "ne": {
          "lat": 0.0000895719153106711,
          "lon": -0.0007540988500916892
        }
      },
      "epsg": 4326
    },
    {
      "name": "inspire-wg:SKH_Carbon_Mitigation_En_Cy_Jobs",
      "title": "Carbon Mitigation (Jobs)",
      "bbox": {
        "sw": {
          "lat": 0.00035932521531378825,
          "lon": -0.0006692457849843276
        },
        "ne": {
          "lat": 0.0003593270119637282,
          "lon": -0.0006692439883537593
        }
      },
      "epsg": 4326
    },
    {
      "name": "inspire-wg:SKH_Carbon_Mitigation_En_Cy_Public_Sector",
      "title": "Carbon Mitigation (Public Sector)",
      "bbox": {
        "sw": {
          "lat": 0.0004581398965939343,
          "lon": -0.0011228950034646858
        },
        "ne": {
          "lat": 0.00045814169320124165,
          "lon": -0.0011228932068341176
        }
      },
      "epsg": 4326
    },
    {
      "name": "inspire-wg:SKH_Carbon_Mitigation_En_Cy_Transport",
      "title": "Carbon Mitigation (Transport)",
      "bbox": {
        "sw": {
          "lat": -0.0001976293624892378,
          "lon": -0.001095944646625816
        },
        "ne": {
          "lat": 0.0005570542908230891,
          "lon": 0.001302557161973306
        }
      },
      "epsg": 4326
    },
    {
      "name": "inspire-wg:SKH_Carbon_Mitigation_En_Cy_Waste",
      "title": "Carbon Mitigation (Waste)",
      "bbox": {
        "sw": {
          "lat": 0.0004716155241482056,
          "lon": -0.0009881468125314736
        },
        "ne": {
          "lat": 0.0005300060176267607,
          "lon": -0.000035932611364780857
        }
      },
      "epsg": 4326
    },
    {
      "name": "inspire-wg:SKH_Carbon_Mitigation_En_Cy",
      "title": "Carbon Mitigation Measures (En &amp; Cy)",
      "bbox": {
        "sw": {
          "lat": -0.0003548799423356286,
          "lon": -0.0011365035762209272
        },
        "ne": {
          "lat": 0.0005615912866119288,
          "lon": 0.0016126106768042736
        }
      },
      "epsg": 4326
    },
    {
      "name": "inspire-wg:Careers_Wales_Regions",
      "title": "Careers_Wales_Regions",
      "bbox": {
        "sw": {
          "lat": 0.0004610450582873682,
          "lon": -0.00005222321158471506
        },
        "ne": {
          "lat": 0.00048022766283395413,
          "lon": -0.00002374676697366157
        }
      },
      "epsg": 27700
    },
    {
      "name": "appdata-wg-marine:cefas_nursery_anglerfish_2010",
      "title": "Cefas Nursery Areas  - Anglerfish (2010)",
      "bbox": {
        "sw": {
          "lat": 0.0004574815812077304,
          "lon": -0.00006350152839596602
        },
        "ne": {
          "lat": 0.0004850807611944674,
          "lon": -0.000023666651837638946
        }
      },
      "epsg": 4326
    },
    {
      "name": "appdata-wg-marine:cefas_nursery_spotted_ray_2010",
      "title": "Cefas Nursery Areas  - Spotted Ray (2010)",
      "bbox": {
        "sw": {
          "lat": 0.0004607797056905838,
          "lon": -0.00004951630861035701
        },
        "ne": {
          "lat": 0.00048391832179106586,
          "lon": -0.00002750499862818139
        }
      },
      "epsg": 4326
    },
    {
      "name": "appdata-wg-marine:cefas_nursery_blue_whiting_2010",
      "title": "Cefas Nursery Areas - Blue Whiting (2010)",
      "bbox": {
        "sw": {
          "lat": 0.00045761822897816273,
          "lon": -0.00006330432213426681
        },
        "ne": {
          "lat": 0.000465626755257631,
          "lon": -0.000053898917047171285
        }
      },
      "epsg": 4326
    },
    {
      "name": "appdata-wg-marine:cefas_nursery_cod_2010",
      "title": "Cefas Nursery Areas - Cod (2010)",
      "bbox": {
        "sw": {
          "lat": 0.0004626323713239344,
          "lon": -0.000056593862827664004
        },
        "ne": {
          "lat": 0.0004849441271943533,
          "lon": -0.00002761396577629416
        }
      },
      "epsg": 4326
    },
    {
      "name": "appdata-wg-marine:cefas_nursery_hake_2010",
      "title": "Cefas Nursery Areas - Hake (2010)",
      "bbox": {
        "sw": {
          "lat": 0.00045761822897816273,
          "lon": -0.00006330432213426681
        },
        "ne": {
          "lat": 0.00046712394774317545,
          "lon": -0.00004491576420597607
        }
      },
      "epsg": 4326
    },
    {
      "name": "appdata-wg-marine:cefas_nursery_herring_2010",
      "title": "Cefas Nursery Areas - Herring (2010)",
      "bbox": {
        "sw": {
          "lat": 0.0004626323713239344,
          "lon": -0.00004491576420597607
        },
        "ne": {
          "lat": 0.0004838037501144754,
          "lon": -0.00002761396577629416
        }
      },
      "epsg": 4326
    },
    {
      "name": "appdata-wg-marine:cefas_nursery_ling_2010",
      "title": "Cefas Nursery Areas - Ling (2010)",
      "bbox": {
        "sw": {
          "lat": 0.00045761822897816273,
          "lon": -0.00006330432213426681
        },
        "ne": {
          "lat": 0.000465626755257631,
          "lon": -0.000053898917047171285
        }
      },
      "epsg": 4326
    },
    {
      "name": "appdata-wg-marine:cefas_nursery_mackerel_2010",
      "title": "Cefas Nursery Areas - Mackerel (2010)",
      "bbox": {
        "sw": {
          "lat": 0.0004574815812077304,
          "lon": -0.00006346364082897982
        },
        "ne": {
          "lat": 0.0004850807611944674,
          "lon": -0.000031281718688793754
        }
      },
      "epsg": 4326
    },
    {
      "name": "appdata-wg-marine:cefas_nursery_plaice_2010",
      "title": "Cefas Nursery Areas - Plaice (2010)",
      "bbox": {
        "sw": {
          "lat": 0.0004605974341700403,
          "lon": -0.00004502102267783065
        },
        "ne": {
          "lat": 0.0004839192127548131,
          "lon": -0.000023758592904659067
        }
      },
      "epsg": 4326
    },
    {
      "name": "appdata-wg-marine:cefas_nursery_sandeel_2010",
      "title": "Cefas Nursery Areas - Sandeel (2010)",
      "bbox": {
        "sw": {
          "lat": 0.00046129982194997865,
          "lon": -0.00004491576420597607
        },
        "ne": {
          "lat": 0.0004838037501144754,
          "lon": -0.00002761396577629416
        }
      },
      "epsg": 4326
    },
    {
      "name": "appdata-wg-marine:cefas_nursery_sole_2010",
      "title": "Cefas Nursery Areas - Sole (2010)",
      "bbox": {
        "sw": {
          "lat": 0.0004607128839637653,
          "lon": -0.00004491576420597607
        },
        "ne": {
          "lat": 0.0004838037501144754,
          "lon": -0.000026949458523585642
        }
      },
      "epsg": 4326
    },
    {
      "name": "appdata-wg-marine:cefas_nursery_spurdog_2010",
      "title": "Cefas Nursery Areas - Spurdog (2010)",
      "bbox": {
        "sw": {
          "lat": 0.00048059867700089853,
          "lon": -0.00004776042948196128
        },
        "ne": {
          "lat": 0.0004849441271943533,
          "lon": -0.00003144103494418325
        }
      },
      "epsg": 4326
    },
    {
      "name": "appdata-wg-marine:cefas_nursery_thornback_ray_2010",
      "title": "Cefas Nursery Areas - Thornback Ray (2010)",
      "bbox": {
        "sw": {
          "lat": 0.0004596652757982156,
          "lon": -0.000054033663140408955
        },
        "ne": {
          "lat": 0.0004839238389422462,
          "lon": -0.000026814710288597522
        }
      },
      "epsg": 4326
    },
    {
      "name": "appdata-wg-marine:cefas_nursery_tope_2010",
      "title": "Cefas Nursery Areas - Tope (2010)",
      "bbox": {
        "sw": {
          "lat": 0.0004579969035205522,
          "lon": -0.00005403034342707773
        },
        "ne": {
          "lat": 0.0004850781910903379,
          "lon": -0.000027482540232058255
        }
      },
      "epsg": 4326
    },
    {
      "name": "appdata-wg-marine:cefas_nursery_whiting_2010",
      "title": "Cefas Nursery Areas - Whiting (2010)",
      "bbox": {
        "sw": {
          "lat": 0.0004574815812077304,
          "lon": -0.00006348609922510294
        },
        "ne": {
          "lat": 0.0004850807611944674,
          "lon": -0.000026767683872073015
        }
      },
      "epsg": 4326
    },
    {
      "name": "appdata-wg-marine:cefas_spawning_hake_2010",
      "title": "Cefas Spawning Areas  - Hake (2010)",
      "bbox": {
        "sw": {
          "lat": 0.00045761822897816273,
          "lon": -0.0000628820698883665
        },
        "ne": {
          "lat": 0.0004839487201593329,
          "lon": -0.000040424187785378465
        }
      },
      "epsg": 4326
    },
    {
      "name": "appdata-wg-marine:cefas_spawning_mackerel_2010",
      "title": "Cefas Spawning Areas  - Mackerel (2010)",
      "bbox": {
        "sw": {
          "lat": 0.0004574815812077304,
          "lon": -0.00006348609922510294
        },
        "ne": {
          "lat": 0.0004850807611944674,
          "lon": -0.000026767683872073015
        }
      },
      "epsg": 4326
    },
    {
      "name": "appdata-wg-marine:cefas_spawning_cod_2010",
      "title": "Cefas Spawning Areas - Cod (2010)",
      "bbox": {
        "sw": {
          "lat": 0.0004574815812077304,
          "lon": -0.00006306173277385033
        },
        "ne": {
          "lat": 0.0004850807611944674,
          "lon": -0.000026769795638101814
        }
      },
      "epsg": 4326
    },
    {
      "name": "appdata-wg-marine:cefas_spawning_horse_mackerel_2010",
      "title": "Cefas Spawning Areas - Horse Mackerel (2010)",
      "bbox": {
        "sw": {
          "lat": 0.00045761822897816273,
          "lon": -0.00006330432213426681
        },
        "ne": {
          "lat": 0.0004849441271943533,
          "lon": -0.000035932611364780857
        }
      },
      "epsg": 4326
    },
    {
      "name": "appdata-wg-marine:cefas_spawning_ling_2010",
      "title": "Cefas Spawning Areas - Ling (2010)",
      "bbox": {
        "sw": {
          "lat": 0.0004574815812077304,
          "lon": -0.0000630392743777272
        },
        "ne": {
          "lat": 0.0004850807611944674,
          "lon": -0.00003128383045482255
        }
      },
      "epsg": 4326
    },
    {
      "name": "appdata-wg-marine:cefas_spawning_plaice_2010",
      "title": "Cefas Spawning Areas - Plaice (2010)",
      "bbox": {
        "sw": {
          "lat": 0.0004596595530443892,
          "lon": -0.00004951630861035701
        },
        "ne": {
          "lat": 0.0004850699324947527,
          "lon": -0.00002750499862818139
        }
      },
      "epsg": 4326
    },
    {
      "name": "appdata-wg-marine:cefas_spawning_sandeel_2010",
      "title": "Cefas Spawning Areas - Sandeel( 2010)",
      "bbox": {
        "sw": {
          "lat": 0.0004574815812077304,
          "lon": -0.00005854437824379847
        },
        "ne": {
          "lat": 0.0004850807611944674,
          "lon": -0.00002746008183593513
        }
      },
      "epsg": 4326
    },
    {
      "name": "appdata-wg-marine:cefas_spawning_sole_2010",
      "title": "Cefas Spawning Areas - Sole (2010)",
      "bbox": {
        "sw": {
          "lat": 0.0004574815812077304,
          "lon": -0.00005854437824379847
        },
        "ne": {
          "lat": 0.0004850807611944674,
          "lon": -0.00002746008183593513
        }
      },
      "epsg": 4326
    },
    {
      "name": "appdata-wg-marine:cefas_spawning_whiting_2010",
      "title": "Cefas Spawning Areas - Whiting (2010)",
      "bbox": {
        "sw": {
          "lat": 0.0004574815812077304,
          "lon": -0.00005854769795712959
        },
        "ne": {
          "lat": 0.0004850807611944674,
          "lon": -0.000026792254034224944
        }
      },
      "epsg": 4326
    },
    {
      "name": "inspire-wg:centres_of_excellence",
      "title": "Centres of Excellence",
      "bbox": {
        "sw": {
          "lat": 0.00046259483886501584,
          "lon": -0.000028855007727893694
        },
        "ne": {
          "lat": 0.0004625950030572312,
          "lon": -0.00002885474469898436
        }
      },
      "epsg": 27700
    },
    {
      "name": "inspire-wg:Coastal_Focus_Draft_Dev_Plan",
      "title": "Coastal_Focus_Draft_Dev_Plan",
      "bbox": {
        "sw": {
          "lat": 0.0004610493891874512,
          "lon": -0.00005222234702757841
        },
        "ne": {
          "lat": 0.0004802276770021763,
          "lon": -0.00002374719203886492
        }
      },
      "epsg": 27700
    },
    {
      "name": "inspire-wg:mobile_coverage_scoring_commercial",
      "title": "Commercial Premises",
      "bbox": {
        "sw": {
          "lat": 0.0004610662214048489,
          "lon": -0.00004916949724778346
        },
        "ne": {
          "lat": 0.0004802216880364085,
          "lon": -0.000023751857958539262
        }
      },
      "epsg": 27700
    },
    {
      "name": "appdata-wg-marine:rspb_ud_cogu",
      "title": "Common Guillemot 95% Utilisation Distributions in 5% Bands",
      "bbox": {
        "sw": {
          "lat": 0.00046076600105493526,
          "lon": -0.000056593862725263155
        },
        "ne": {
          "lat": 0.00048394824015929316,
          "lon": -0.00003220718172937043
        }
      },
      "epsg": 4326
    },
    {
      "name": "inspire-wg:Communities1st_Clusters",
      "title": "Communities1st_Clusters",
      "bbox": {
        "sw": {
          "lat": 0.0004613833021380742,
          "lon": -0.00004578291591648646
        },
        "ne": {
          "lat": 0.00047920059742523335,
          "lon": -0.00002622087008650295
        }
      },
      "epsg": 27700
    },
    {
      "name": "inspire-wg:Communities_First_2010",
      "title": "Communities_First_2010",
      "bbox": {
        "sw": {
          "lat": 0.0004612264756502782,
          "lon": -0.00004544500230870949
        },
        "ne": {
          "lat": 0.0004800468787209411,
          "lon": -0.00002621753183291994
        }
      },
      "epsg": 27700
    },
    {
      "name": "inspire-wg:Community_Wards",
      "title": "Community Wards",
      "bbox": {
        "sw": {
          "lat": 0.0004611164920902411,
          "lon": -0.00004974186602816829
        },
        "ne": {
          "lat": 0.0004802284770306642,
          "lon": -0.000023747021615897174
        }
      },
      "epsg": 27700
    },
    {
      "name": "inspire-wg:Community_Parishes",
      "title": "Community_Parishes",
      "bbox": {
        "sw": {
          "lat": 0.00046104552782821884,
          "lon": -0.00005222243186079138
        },
        "ne": {
          "lat": 0.0004802284761069586,
          "lon": -0.000023747137662839486
        }
      },
      "epsg": 27700
    },
    {
      "name": "inspire-wg:conservation_areas",
      "title": "Conservation Areas (Wales)",
      "bbox": {
        "sw": {
          "lat": 0.0004611637153004722,
          "lon": -0.000048548273541603156
        },
        "ne": {
          "lat": 0.00048012821210363654,
          "lon": -0.000023802639587284898
        }
      },
      "epsg": 27700
    },
    {
      "name": "inspire-wg:Convergence_AssistedAreas_Tier1",
      "title": "Convergence_AssistedAreas_Tier1",
      "bbox": {
        "sw": {
          "lat": 0.0004619576550766169,
          "lon": -0.00005222236189377104
        },
        "ne": {
          "lat": 0.0004802072354976872,
          "lon": -0.00002655119369702065
        }
      },
      "epsg": 27700
    },
    {
      "name": "inspire-wg:Convergence_AssistedAreas_Tier2",
      "title": "Convergence_AssistedAreas_Tier2",
      "bbox": {
        "sw": {
          "lat": 0.00046143070292714583,
          "lon": -0.00003480089544100316
        },
        "ne": {
          "lat": 0.00047939689362408444,
          "lon": -0.000025205758693239208
        }
      },
      "epsg": 27700
    },
    {
      "name": "inspire-wg:Courts_England_wales",
      "title": "Courts_England_wales",
      "bbox": {
        "sw": {
          "lat": 0.0004475414901463637,
          "lon": -0.0000622452324393534
        },
        "ne": {
          "lat": 0.0005009818538894706,
          "lon": 0.000018498938589925536
        }
      },
      "epsg": 27700
    },
    {
      "name": "inspire-wg:draft_active_travel_in_lines",
      "title": "DRAFT Active Travel Integrated Network Lines",
      "bbox": {
        "sw": {
          "lat": -0.00039195920305701293,
          "lon": -0.000046533565187027594
        },
        "ne": {
          "lat": 0.000480006945181799,
          "lon": 0.00009403059998929026
        }
      },
      "epsg": 27700
    },
    {
      "name": "inspire-wg:draft_active_travel_in_points",
      "title": "DRAFT Active Travel Integrated Network Points",
      "bbox": {
        "sw": {
          "lat": 0.00046221886410080515,
          "lon": -0.00003347022844925
        },
        "ne": {
          "lat": 0.0004648523577515107,
          "lon": -0.00002772652709740501
        }
      },
      "epsg": 27700
    },
    {
      "name": "inspire-wg:dentists",
      "title": "Dentists",
      "bbox": {
        "sw": {
          "lat": 0.0004612641124737138,
          "lon": -0.00004642139799324
        },
        "ne": {
          "lat": 0.00048011692088323343,
          "lon": -0.000023839978979440706
        }
      },
      "epsg": 27700
    },
    {
      "name": "inspire-wg:Dentists",
      "title": "Dentists",
      "bbox": {
        "sw": {
          "lat": 0.00046130758396145666,
          "lon": -0.000048300918540448965
        },
        "ne": {
          "lat": 0.00048002462264662427,
          "lon": -0.000023946782227418975
        }
      },
      "epsg": 27700
    },
    {
      "name": "appdata-wg-marine:cefas_disposal_sites",
      "title": "Disposal Sites - Cefas",
      "bbox": {
        "sw": {
          "lat": 0.00042159255876583757,
          "lon": -0.00012695643516625897
        },
        "ne": {
          "lat": 0.0005459454048803991,
          "lon": 0.00003834010174056655
        }
      },
      "epsg": 4326
    },
    {
      "name": "appdata-wg-marine:draft_aggregates_ra",
      "title": "Draft Aggregates RA",
      "bbox": {
        "sw": {
          "lat": 0.00045686262627953056,
          "lon": -0.00005261115134703621
        },
        "ne": {
          "lat": 0.0004910251118417364,
          "lon": -0.000024192166149961287
        }
      },
      "epsg": 4326
    },
    {
      "name": "appdata-wg-marine:draft_anchorage_sra",
      "title": "Draft Anchorage SRA",
      "bbox": {
        "sw": {
          "lat": 0.0004615339051099454,
          "lon": -0.00004791098971072772
        },
        "ne": {
          "lat": 0.0004805751978125272,
          "lon": -0.00002417836967111427
        }
      },
      "epsg": 4326
    },
    {
      "name": "appdata-wg-marine:draft_aquaculture_ra",
      "title": "Draft Aquaculture Resource Areas",
      "bbox": {
        "sw": {
          "lat": 0.0004613814177645281,
          "lon": -0.00005105287441130977
        },
        "ne": {
          "lat": 0.00048180023222244017,
          "lon": -0.00002406913447866606
        }
      },
      "epsg": 4326
    },
    {
      "name": "appdata-wg-marine:draft_aquaculture_sra",
      "title": "Draft Aquaculture Strategic Resource Areas",
      "bbox": {
        "sw": {
          "lat": 0.00046195907349044774,
          "lon": -0.000048307294716145026
        },
        "ne": {
          "lat": 0.0004810004008817259,
          "lon": -0.00003269171659507796
        }
      },
      "epsg": 4326
    },
    {
      "name": "appdata-wg-marine:draft_harbour_areas_sra",
      "title": "Draft Harbour Areas SRA",
      "bbox": {
        "sw": {
          "lat": 0.00046131921403969045,
          "lon": -0.00004732249188763143
        },
        "ne": {
          "lat": 0.00048085186183755013,
          "lon": -0.000023863853994204836
        }
      },
      "epsg": 4326
    },
    {
      "name": "appdata-wg-marine:draft_nationalgrid_hvlines",
      "title": "Draft National Grid High Voltage Lines",
      "bbox": {
        "sw": {
          "lat": 0.0004522928221604161,
          "lon": -0.00004513508802789024
        },
        "ne": {
          "lat": 0.0005002666291886726,
          "lon": 0.000014848197470930806
        }
      },
      "epsg": 4326
    },
    {
      "name": "appdata-wg-marine:draft_pilot_boarding_sra",
      "title": "Draft Pilot Boarding SRA",
      "bbox": {
        "sw": {
          "lat": 0.00046108570415981376,
          "lon": -0.00004735117284886497
        },
        "ne": {
          "lat": 0.0004801756804795332,
          "lon": -0.00002919473020259581
        }
      },
      "epsg": 4326
    },
    {
      "name": "appdata-wg-marine:draft_shipping_sra",
      "title": "Draft Shipping SRA",
      "bbox": {
        "sw": {
          "lat": 0.0004580671224800881,
          "lon": -0.000054198313664623055
        },
        "ne": {
          "lat": 0.0004847401964980236,
          "lon": -0.000023863853994204836
        }
      },
      "epsg": 4326
    },
    {
      "name": "appdata-wg-marine:draft_swanseabay_tidallagoon",
      "title": "Draft Swansea Bay Tidal Lagoon",
      "bbox": {
        "sw": {
          "lat": 0.00046323761816324804,
          "lon": -0.000035453069834186056
        },
        "ne": {
          "lat": 0.0004637511680272155,
          "lon": -0.000034334488450884185
        }
      },
      "epsg": 4326
    },
    {
      "name": "appdata-wg-marine:draft_tidalrange_ra",
      "title": "Draft Tidal Range Resource Area",
      "bbox": {
        "sw": {
          "lat": 0.00046061316318457557,
          "lon": -0.0000475033629513571
        },
        "ne": {
          "lat": 0.0004807594625049205,
          "lon": -0.000023822605544686527
        }
      },
      "epsg": 4326
    },
    {
      "name": "appdata-wg-marine:draft_tidalrange_sra",
      "title": "Draft Tidal Range Strategic Resource Area",
      "bbox": {
        "sw": {
          "lat": 0.0004607128839637653,
          "lon": -0.00003728008378790304
        },
        "ne": {
          "lat": 0.00048021968871125864,
          "lon": -0.000024244600570550126
        }
      },
      "epsg": 4326
    },
    {
      "name": "appdata-wg-marine:draft_tidalstream_ra",
      "title": "Draft Tidal Stream Energy Resource Area",
      "bbox": {
        "sw": {
          "lat": 0.0004607348851806137,
          "lon": -0.000050528118489559454
        },
        "ne": {
          "lat": 0.0004813495251596578,
          "lon": -0.00002404447876940615
        }
      },
      "epsg": 4326
    },
    {
      "name": "appdata-wg-marine:draft_tidalstream_sra",
      "title": "Draft Tidal Stream Energy Strategic Resource Area",
      "bbox": {
        "sw": {
          "lat": 0.00046076758545154917,
          "lon": -0.000049619471061519815
        },
        "ne": {
          "lat": 0.0004804331922656502,
          "lon": -0.000029541565358998834
        }
      },
      "epsg": 4326
    },
    {
      "name": "appdata-wg-marine:draft_wave_ra",
      "title": "Draft Wave Energy Resource Area",
      "bbox": {
        "sw": {
          "lat": 0.00045761822897816273,
          "lon": -0.00006330432213426681
        },
        "ne": {
          "lat": 0.00046912037443291865,
          "lon": -0.0000419141578509797
        }
      },
      "epsg": 4326
    },
    {
      "name": "appdata-wg-marine:draft_wave_sra",
      "title": "Draft Wave Energy Startegic Resource Area",
      "bbox": {
        "sw": {
          "lat": 0.00046004588558901105,
          "lon": -0.00004869403444421314
        },
        "ne": {
          "lat": 0.0004624451319585887,
          "lon": -0.00004191384139247141
        }
      },
      "epsg": 4326
    },
    {
      "name": "appdata-wg-marine:draft_wind_energy_ra",
      "title": "Draft Wind Energy Resource Area",
      "bbox": {
        "sw": {
          "lat": 0.00045905392398992717,
          "lon": -0.00005726881396573154
        },
        "ne": {
          "lat": 0.0004852498449565701,
          "lon": -0.000025905189993684458
        }
      },
      "epsg": 4326
    },
    {
      "name": "inspire-wg:Dragon_Ride_Horse_Trail",
      "title": "Dragon Ride Horse Trail",
      "bbox": {
        "sw": {
          "lat": 0.0004630338459179484,
          "lon": -0.00003675891399718279
        },
        "ne": {
          "lat": 0.0004793199979076235,
          "lon": -0.00002762863107278178
        }
      },
      "epsg": 27700
    },
    {
      "name": "inspire-wg:EFZ_Regional_Competitiveness",
      "title": "EFZ_Regional_Competitiveness",
      "bbox": {
        "sw": {
          "lat": 0.0004614181594178035,
          "lon": -0.000035613232814197804
        },
        "ne": {
          "lat": 0.0004793680595440719,
          "lon": -0.000023746518349406752
        }
      },
      "epsg": 27700
    },
    {
      "name": "inspire-wg:eia_screenings",
      "title": "EIA Screenings",
      "bbox": {
        "sw": {
          "lat": 0.0004612986974308342,
          "lon": -0.000048729611115948516
        },
        "ne": {
          "lat": 0.00048018565581742223,
          "lon": -0.000024194511837928976
        }
      },
      "epsg": 27700
    },
    {
      "name": "inspire-wg:Electoral_Divisions",
      "title": "Electoral_Divisions",
      "bbox": {
        "sw": {
          "lat": 0.00046104552782821884,
          "lon": -0.00005222243186079138
        },
        "ne": {
          "lat": 0.0004802284761069586,
          "lon": -0.000023747137662839486
        }
      },
      "epsg": 27700
    },
    {
      "name": "inspire-wg:ecas_in_enterprise_zones",
      "title": "Enhanced Capital Allowance areas (in EZs)",
      "bbox": {
        "sw": {
          "lat": 0.0004631213487584773,
          "lon": -0.000045791610849204405
        },
        "ne": {
          "lat": 0.0004781225736678607,
          "lon": -0.00002661876931074373
        }
      },
      "epsg": 27700
    },
    {
      "name": "inspire-wg:enterprise_zones",
      "title": "Enterprise Zones",
      "bbox": {
        "sw": {
          "lat": 0.00046134993438329275,
          "lon": -0.00004685261296299365
        },
        "ne": {
          "lat": 0.0004798372253276284,
          "lon": -0.000026204885719419576
        }
      },
      "epsg": 27700
    },
    {
      "name": "inspire-wg:fuel_poverty_by_lsoa_geom_vw",
      "title": "Estimated Fuel poverty by LSOA",
      "bbox": {
        "sw": {
          "lat": 0.0004610494478640703,
          "lon": -0.0000522203803051045
        },
        "ne": {
          "lat": 0.0004802276968263186,
          "lon": -0.000023746570996984425
        }
      },
      "epsg": 27700
    },
    {
      "name": "appdata-wg-marine:rspb_ud_eush",
      "title": "European Shag 95% Utilisation Distributions in 5% Bands",
      "bbox": {
        "sw": {
          "lat": 0.00046329952438384225,
          "lon": -0.000049385237956300066
        },
        "ne": {
          "lat": 0.0004801207194731205,
          "lon": -0.0000349522685584818
        }
      },
      "epsg": 4326
    },
    {
      "name": "appdata-wg-marine:Experimental_aquaculture_area",
      "title": "Experimental Aquaculture Area",
      "bbox": {
        "sw": {
          "lat": 0.00047888349368463423,
          "lon": -0.00003585774576900233
        },
        "ne": {
          "lat": 0.0004789028074867474,
          "lon": -0.00003582526268832857
        }
      },
      "epsg": 4326
    },
    {
      "name": "inspire-wg:moj_Female_Offenders_by_LA",
      "title": "Female Offender Rates (by LA)",
      "bbox": {
        "sw": {
          "lat": 0.0004610455278424297,
          "lon": -0.00005222243187806555
        },
        "ne": {
          "lat": 0.0004802284760785369,
          "lon": -0.000023747137642497062
        }
      },
      "epsg": 27700
    },
    {
      "name": "inspire-wg:fire_stations",
      "title": "Fire Stations",
      "bbox": {
        "sw": {
          "lat": 0.00046151009634343154,
          "lon": -0.000048315509027648375
        },
        "ne": {
          "lat": 0.0004799614774952943,
          "lon": -0.000024043095042798915
        }
      },
      "epsg": 27700
    },
    {
      "name": "inspire-wg:Fire_Authorities",
      "title": "Fire and Rescue Service Areas",
      "bbox": {
        "sw": {
          "lat": 0.00046104938878954727,
          "lon": -0.00005222236190494673
        },
        "ne": {
          "lat": 0.0004802276968263186,
          "lon": -0.000023746572611324075
        }
      },
      "epsg": 27700
    },
    {
      "name": "inspire-wg:Fire_Fatalities_2009_2015",
      "title": "Fire_Fatalities_2009_2015",
      "bbox": {
        "sw": {
          "lat": 0.00046133342668497335,
          "lon": -0.00004720867546443176
        },
        "ne": {
          "lat": 0.00048010367220285843,
          "lon": -0.000023893070706500855
        }
      },
      "epsg": 27700
    },
    {
      "name": "inspire-wg:fuel_poverty_by_la_geom_vw",
      "title": "Fuel Poverty by LA",
      "bbox": {
        "sw": {
          "lat": 0.00046104944763669664,
          "lon": -0.000052220380158965625
        },
        "ne": {
          "lat": 0.0004802276968263186,
          "lon": -0.000023746572611324024
        }
      },
      "epsg": 27700
    },
    {
      "name": "appdata-wg:Fusion_Pioneer_Areas",
      "title": "Fusion: Pioneer Areas",
      "bbox": {
        "sw": {
          "lat": 0.0004475244994210925,
          "lon": -0.0000829202212633237
        },
        "ne": {
          "lat": 0.0005467466472737215,
          "lon": 0.00002427051301877954
        }
      },
      "epsg": 27700
    },
    {
      "name": "inspire-wg:GA_PA_Line",
      "title": "GA_PA_Line",
      "bbox": {
        "sw": {
          "lat": 0.00046156327442758993,
          "lon": -0.00004630710144583265
        },
        "ne": {
          "lat": 0.00047887474592300805,
          "lon": -0.00002525597173573708
        }
      },
      "epsg": 27700
    },
    {
      "name": "inspire-wg:GA_PA_POLY_new",
      "title": "GA_PA_POLY",
      "bbox": {
        "sw": {
          "lat": 0.0004617777165094594,
          "lon": -0.000047841028557774714
        },
        "ne": {
          "lat": 0.0004796516217879798,
          "lon": -0.000024051157836528658
        }
      },
      "epsg": 27700
    },
    {
      "name": "inspire-wg:GE_PA_POLY_singlepart",
      "title": "GE_PA_POLY_singlepart",
      "bbox": {
        "sw": {
          "lat": 0.00046236601417604106,
          "lon": -0.00004841214596930191
        },
        "ne": {
          "lat": 0.00047928205751190944,
          "lon": -0.000024667604327850335
        }
      },
      "epsg": 27700
    },
    {
      "name": "inspire-wg:gp_surgeries_2018",
      "title": "GP Surgeries",
      "bbox": {
        "sw": {
          "lat": 0.00046135075804443204,
          "lon": -0.000046411728242956694
        },
        "ne": {
          "lat": 0.000480083802841591,
          "lon": -0.000023506196619573177
        }
      },
      "epsg": 27700
    },
    {
      "name": "inspire-wg:gp_surgeries_subbranch_2018",
      "title": "GP Surgeries (Subbranch)",
      "bbox": {
        "sw": {
          "lat": 0.0004612464811799555,
          "lon": -0.00004696093629970313
        },
        "ne": {
          "lat": 0.0004800925895409591,
          "lon": -0.00002379204785239088
        }
      },
      "epsg": 27700
    },
    {
      "name": "inspire-wg:GWC_NRW_SensitiveHabitats",
      "title": "GWC NRW Sensitive Habitats",
      "bbox": {
        "sw": {
          "lat": 0.00046070767832873116,
          "lon": -0.000049286902424358746
        },
        "ne": {
          "lat": 0.0004802669331098741,
          "lon": -0.000023879586035480824
        }
      },
      "epsg": 27700
    },
    {
      "name": "inspire-wg:GWC_AirQuality",
      "title": "GWC_AirQuality",
      "bbox": {
        "sw": {
          "lat": 0.0004610497389307966,
          "lon": -0.00005222059121243167
        },
        "ne": {
          "lat": 0.0004802273394375334,
          "lon": -0.000023746938110826562
        }
      },
      "epsg": 27700
    },
    {
      "name": "inspire-wg:GWC_ArablePlants",
      "title": "GWC_ArablePlants",
      "bbox": {
        "sw": {
          "lat": 0.0004611871418944702,
          "lon": -0.00004912960445223464
        },
        "ne": {
          "lat": 0.0004793842904291523,
          "lon": -0.00002437631529595474
        }
      },
      "epsg": 27700
    },
    {
      "name": "inspire-wg:GWC_CommunitiesFirst",
      "title": "GWC_CommunitiesFirst",
      "bbox": {
        "sw": {
          "lat": 0.00046104944763669664,
          "lon": -0.00005222039384309502
        },
        "ne": {
          "lat": 0.0004802278492093137,
          "lon": -0.000023746701464649078
        }
      },
      "epsg": 27700
    },
    {
      "name": "inspire-wg:GWC_Fritillaries",
      "title": "GWC_Fritillaries",
      "bbox": {
        "sw": {
          "lat": 0.00046129808434614006,
          "lon": -0.00004912519687237124
        },
        "ne": {
          "lat": 0.0004794168468578164,
          "lon": -0.000023706484729003833
        }
      },
      "epsg": 27700
    },
    {
      "name": "inspire-wg:GWC_HistoricLandscapeArea",
      "title": "GWC_HistoricLandscapeArea",
      "bbox": {
        "sw": {
          "lat": 0.0004613939343300899,
          "lon": -0.000049159475555713937
        },
        "ne": {
          "lat": 0.00048006819353929586,
          "lon": -0.000023750201022046066
        }
      },
      "epsg": 27700
    },
    {
      "name": "inspire-wg:GWC_RedSquirrelArea",
      "title": "GWC_RedSquirrelArea",
      "bbox": {
        "sw": {
          "lat": 0.00046753876900140767,
          "lon": -0.00003631664014536309
        },
        "ne": {
          "lat": 0.0004775319493717234,
          "lon": -0.000029752962373180406
        }
      },
      "epsg": 27700
    },
    {
      "name": "inspire-wg:GWC_SPA500mBuffer",
      "title": "GWC_SPA500mBuffer",
      "bbox": {
        "sw": {
          "lat": 0.0004674745099748634,
          "lon": -0.000035522368073630246
        },
        "ne": {
          "lat": 0.0004766504672772953,
          "lon": -0.000028408821997998527
        }
      },
      "epsg": 27700
    },
    {
      "name": "inspire-wg:glastir_active",
      "title": "Glastir Active",
      "bbox": {
        "sw": {
          "lat": 0.00046138771254788935,
          "lon": -0.00004916068340985704
        },
        "ne": {
          "lat": 0.0004801320385041663,
          "lon": -0.000023848546657252518
        }
      },
      "epsg": 27700
    },
    {
      "name": "inspire-wg:glastir_management_ga",
      "title": "Glastir Advanced",
      "bbox": {
        "sw": {
          "lat": 0.0004615226013413576,
          "lon": -0.000048575189558971596
        },
        "ne": {
          "lat": 0.00048004162950121554,
          "lon": -0.000024018933042890786
        }
      },
      "epsg": 27700
    },
    {
      "name": "inspire-wg:glastir_management_gae",
      "title": "Glastir Advanced and Entry",
      "bbox": {
        "sw": {
          "lat": 0.00046138771254788935,
          "lon": -0.00004916068340985704
        },
        "ne": {
          "lat": 0.0004801320385041663,
          "lon": -0.000023848546657252518
        }
      },
      "epsg": 27700
    },
    {
      "name": "inspire-wg:glastir_management_common",
      "title": "Glastir Management Common",
      "bbox": {
        "sw": {
          "lat": 0.00046186575022488796,
          "lon": -0.00004824017836688852
        },
        "ne": {
          "lat": 0.0004788290519854854,
          "lon": -0.000026703506933016206
        }
      },
      "epsg": 27700
    },
    {
      "name": "inspire-wg:glastir_management_org",
      "title": "Glastir Organics",
      "bbox": {
        "sw": {
          "lat": 0.0004615070867544091,
          "lon": -0.00004915867431990111
        },
        "ne": {
          "lat": 0.00048010635822492986,
          "lon": -0.000024012474319497846
        }
      },
      "epsg": 27700
    },
    {
      "name": "inspire-wg:glastir_management_gwc",
      "title": "Glastir Woodland Creation",
      "bbox": {
        "sw": {
          "lat": 0.0004632557822645822,
          "lon": -0.000047917883915582284
        },
        "ne": {
          "lat": 0.00047990908241501984,
          "lon": -0.0000241953794616496
        }
      },
      "epsg": 27700
    },
    {
      "name": "inspire-wg:HLMO_Adopted_dev_plans",
      "title": "HLMO_Adopted_dev_plans",
      "bbox": {
        "sw": {
          "lat": 0.0004610493891874512,
          "lon": -0.00005222234702757841
        },
        "ne": {
          "lat": 0.0004802276770021763,
          "lon": -0.00002374719203886492
        }
      },
      "epsg": 27700
    },
    {
      "name": "inspire-wg:hmq_smoking_cessation_services",
      "title": "HMQ Smoking Cessation Services",
      "bbox": {
        "sw": {
          "lat": 0.0004613950924436949,
          "lon": -0.00004833234129790731
        },
        "ne": {
          "lat": 0.0004800176916006649,
          "lon": -0.000023998984632994093
        }
      },
      "epsg": 27700
    },
    {
      "name": "inspire-wg:Habitat_Networks_BUA_500mbuffer",
      "title": "Habitat_Networks_BUA_500mbuffer",
      "bbox": {
        "sw": {
          "lat": 0.00046123025717292876,
          "lon": -0.0000484922345184726
        },
        "ne": {
          "lat": 0.0004801301909793665,
          "lon": -0.000023839281665601748
        }
      },
      "epsg": 27700
    },
    {
      "name": "appdata-wg-marine:harbour_areas",
      "title": "Harbour Areas",
      "bbox": {
        "sw": {
          "lat": 0.00046131950779226827,
          "lon": -0.00004732249188763187
        },
        "ne": {
          "lat": 0.00048197836352414924,
          "lon": -0.000022457882102988034
        }
      },
      "epsg": 4326
    },
    {
      "name": "inspire-wg:Hospitals",
      "title": "Hospitals",
      "bbox": {
        "sw": {
          "lat": 0.00046158988534727996,
          "lon": -0.00004552069830403202
        },
        "ne": {
          "lat": 0.000479158946887992,
          "lon": -0.00002410481235207996
        }
      },
      "epsg": 27700
    },
    {
      "name": "inspire-wg:NAP_ind_lden",
      "title": "Industrial Noise (Day-Evening-Night average)",
      "bbox": {
        "sw": {
          "lat": 0.00046221543260571707,
          "lon": -0.000036187247321022194
        },
        "ne": {
          "lat": 0.00046452786872919205,
          "lon": -0.000026395667093382897
        }
      },
      "epsg": 27700
    },
    {
      "name": "inspire-wg:ind_lden_2017",
      "title": "Industrial Noise (Day-Evening-Night average) 2017",
      "bbox": {
        "sw": {
          "lat": 0.00046220776721384027,
          "lon": -0.000036279208662359854
        },
        "ne": {
          "lat": 0.0004645445277020599,
          "lon": -0.000026185706154713463
        }
      },
      "epsg": 27700
    },
    {
      "name": "inspire-wg:NAP_ind_lday",
      "title": "Industrial Noise (Daytime average)",
      "bbox": {
        "sw": {
          "lat": 0.00046221871343732346,
          "lon": -0.00003618313124186439
        },
        "ne": {
          "lat": 0.0004645034322692254,
          "lon": -0.000026421594063839516
        }
      },
      "epsg": 27700
    },
    {
      "name": "inspire-wg:ind_lday_2017",
      "title": "Industrial Noise (Daytime average) 2017",
      "bbox": {
        "sw": {
          "lat": 0.0004622102951969964,
          "lon": -0.00003623344336087562
        },
        "ne": {
          "lat": 0.0004645146111244003,
          "lon": -0.000026374384827092195
        }
      },
      "epsg": 27700
    },
    {
      "name": "inspire-wg:NAP_ind_leve",
      "title": "Industrial Noise (Evening average)",
      "bbox": {
        "sw": {
          "lat": 0.00046221871343732346,
          "lon": -0.00003618313124186439
        },
        "ne": {
          "lat": 0.0004645034322692254,
          "lon": -0.000026421594063839516
        }
      },
      "epsg": 27700
    },
    {
      "name": "inspire-wg:ind_leve_2017",
      "title": "Industrial Noise (Evening average) 2017",
      "bbox": {
        "sw": {
          "lat": 0.0004622102951969964,
          "lon": -0.00003623344336087562
        },
        "ne": {
          "lat": 0.0004645146111244003,
          "lon": -0.000026374384827092195
        }
      },
      "epsg": 27700
    },
    {
      "name": "inspire-wg:NAP_ind_lq16",
      "title": "Industrial Noise (LAeq, 16h)",
      "bbox": {
        "sw": {
          "lat": 0.00046221871343732346,
          "lon": -0.00003618313124186439
        },
        "ne": {
          "lat": 0.0004645034322692254,
          "lon": -0.000026421594063839516
        }
      },
      "epsg": 27700
    },
    {
      "name": "inspire-wg:ind_lq16_2017",
      "title": "Industrial Noise (LAeq, 16h) 2017",
      "bbox": {
        "sw": {
          "lat": 0.0004622102951969964,
          "lon": -0.00003623344336087562
        },
        "ne": {
          "lat": 0.0004645146111244003,
          "lon": -0.000026374384827092195
        }
      },
      "epsg": 27700
    },
    {
      "name": "inspire-wg:NAP_ind_lngt",
      "title": "Industrial Noise (Nightly average)",
      "bbox": {
        "sw": {
          "lat": 0.00046221706239180094,
          "lon": -0.0000361855567938732
        },
        "ne": {
          "lat": 0.00046451003935032986,
          "lon": -0.000026403458414600704
        }
      },
      "epsg": 27700
    },
    {
      "name": "inspire-wg:ind_lngt_2017",
      "title": "Industrial Noise (Nightly average) 2017",
      "bbox": {
        "sw": {
          "lat": 0.0004622093418049644,
          "lon": -0.000036239932606622086
        },
        "ne": {
          "lat": 0.0004645219513719212,
          "lon": -0.000026370435912510424
        }
      },
      "epsg": 27700
    },
    {
      "name": "appdata-wg:vwInnovationHubs",
      "title": "Innovation Hubs",
      "bbox": {
        "sw": {
          "lat": 0.0004620625676210466,
          "lon": -0.00004729509611136628
        },
        "ne": {
          "lat": 0.0004784061812870277,
          "lon": -7.947896379958602e-7
        }
      },
      "epsg": 4326
    },
    {
      "name": "appdata-wg-marine:ireland_polyregion",
      "title": "Ireland Polyregion",
      "bbox": {
        "sw": {
          "lat": 0.0004619546553215059,
          "lon": -0.00009538411399777524
        },
        "ne": {
          "lat": 0.0004979808172436151,
          "lon": -0.00004881994123645734
        }
      },
      "epsg": 4326
    },
    {
      "name": "appdata-wg-marine:jncc_ospar_mpa_wales",
      "title": "JNCC_OSPAR_MPA_WALES",
      "bbox": {
        "sw": {
          "lat": 0.00045134184112782805,
          "lon": -0.000054546382086814054
        },
        "ne": {
          "lat": 0.0004844764770979282,
          "lon": -0.000021373661909366263
        }
      },
      "epsg": 4326
    },
    {
      "name": "appdata-wg-marine:jncc_spa_marine_wales",
      "title": "JNCC_SPA_MARINE_WALES",
      "bbox": {
        "sw": {
          "lat": 0.0004595993706431045,
          "lon": -0.000054546382269073244
        },
        "ne": {
          "lat": 0.00048514548394962276,
          "lon": -0.000021355563306459957
        }
      },
      "epsg": 4326
    },
    {
      "name": "inspire-wg:JGC_Areas",
      "title": "Joint Governance Committee Areas",
      "bbox": {
        "sw": {
          "lat": 0.00046104938878954727,
          "lon": -0.00005222236190494665
        },
        "ne": {
          "lat": 0.00048022769314570724,
          "lon": -0.00002374719203713395
        }
      },
      "epsg": 27700
    },
    {
      "name": "inspire-wg:moj_Juvenile_Offenders_by_LA",
      "title": "Juvenile Offender Rates (by LA)",
      "bbox": {
        "sw": {
          "lat": 0.0004610455278424297,
          "lon": -0.00005222243187806555
        },
        "ne": {
          "lat": 0.0004802284760785369,
          "lon": -0.000023747137642497062
        }
      },
      "epsg": 27700
    },
    {
      "name": "inspire-wg:KWT_Community_Groups",
      "title": "KWT_Community_Groups",
      "bbox": {
        "sw": {
          "lat": 0.00046281270985559786,
          "lon": -0.000035023103906234304
        },
        "ne": {
          "lat": 0.0004653648684467271,
          "lon": -0.000026868788494235593
        }
      },
      "epsg": 27700
    },
    {
      "name": "inspire-wg:KWT_Green_Flag_Award_Locations",
      "title": "KWT_Green_Flag_Award_Locations",
      "bbox": {
        "sw": {
          "lat": 0.00046297842833098457,
          "lon": -0.00003420839822948054
        },
        "ne": {
          "lat": 0.00046543680740285254,
          "lon": -0.000026939440583010624
        }
      },
      "epsg": 27700
    },
    {
      "name": "inspire-wg:KWT_Green_Flag_Community_Award_Locations",
      "title": "KWT_Green_Flag_Community_Award_Locations",
      "bbox": {
        "sw": {
          "lat": 0.000463253476908676,
          "lon": -0.000036312098321658805
        },
        "ne": {
          "lat": 0.00046534159612576786,
          "lon": -0.000027399206972735235
        }
      },
      "epsg": 27700
    },
    {
      "name": "inspire-wg:KWT_Litter_Champions",
      "title": "KWT_Litter_Champions",
      "bbox": {
        "sw": {
          "lat": 0.0004627709645745881,
          "lon": -0.00003488143230291647
        },
        "ne": {
          "lat": 0.0004653715132576508,
          "lon": -0.000026890112954516293
        }
      },
      "epsg": 27700
    },
    {
      "name": "inspire-wg:KWT_Natural_Buzz_2015_Selection",
      "title": "KWT_Natural_Buzz_2015_Selection",
      "bbox": {
        "sw": {
          "lat": 0.0004631818200522275,
          "lon": -0.000036304175787650295
        },
        "ne": {
          "lat": 0.00046534160739497565,
          "lon": -0.000026812322182330294
        }
      },
      "epsg": 27700
    },
    {
      "name": "inspire-wg:KWT_Natural_Buzz_2016_Selection",
      "title": "KWT_Natural_Buzz_2016_Selection",
      "bbox": {
        "sw": {
          "lat": 0.0004628811106073272,
          "lon": -0.000034343354664404304
        },
        "ne": {
          "lat": 0.000465212844133589,
          "lon": -0.000027146626159727927
        }
      },
      "epsg": 27700
    },
    {
      "name": "inspire-wg:KWT_Spring_Clean_Campaign_2017",
      "title": "KWT_Spring_Clean_Campaign_2017",
      "bbox": {
        "sw": {
          "lat": 0.0004629653443970483,
          "lon": -0.000034286766150633126
        },
        "ne": {
          "lat": 0.0004652959136848267,
          "lon": -0.00002697542890417061
        }
      },
      "epsg": 27700
    },
    {
      "name": "inspire-wg:Keep_Wales_Tidy_Case_Studies",
      "title": "Keep_Wales_Tidy_Case_Studies",
      "bbox": {
        "sw": {
          "lat": 0.0004627927761191586,
          "lon": -0.000031503829480106834
        },
        "ne": {
          "lat": 0.0004653631811777359,
          "lon": -0.000026873197816300367
        }
      },
      "epsg": 27700
    },
    {
      "name": "inspire-wg:LA_Employment_Rates",
      "title": "LA_Employment_Rates",
      "bbox": {
        "sw": {
          "lat": 0.00046104938878954727,
          "lon": -0.00005222236190494673
        },
        "ne": {
          "lat": 0.00048022769314570724,
          "lon": -0.00002374719203713389
        }
      },
      "epsg": 27700
    },
    {
      "name": "inspire-wg:LA_ILO_Unemployment_Rates",
      "title": "LA_ILO_Unemployment_Rates",
      "bbox": {
        "sw": {
          "lat": 0.00046104938878954727,
          "lon": -0.00005222236190494673
        },
        "ne": {
          "lat": 0.00048022769314570724,
          "lon": -0.00002374719203713389
        }
      },
      "epsg": 27700
    },
    {
      "name": "inspire-wg:LA_Inactivity_Rates_exc_students",
      "title": "LA_Inactivity_Rates_exc_students",
      "bbox": {
        "sw": {
          "lat": 0.00046104938878954727,
          "lon": -0.00005222236190494673
        },
        "ne": {
          "lat": 0.00048022769314570724,
          "lon": -0.00002374719203713389
        }
      },
      "epsg": 27700
    },
    {
      "name": "inspire-wg:LA_Inactivity_Rates_inc_students",
      "title": "LA_Inactivity_Rates_inc_students",
      "bbox": {
        "sw": {
          "lat": 0.00046104938878954727,
          "lon": -0.00005222236190494673
        },
        "ne": {
          "lat": 0.00048022769314570724,
          "lon": -0.00002374719203713389
        }
      },
      "epsg": 27700
    },
    {
      "name": "inspire-wg:LSOA_business_density",
      "title": "LSOA_business_density",
      "bbox": {
        "sw": {
          "lat": 0.0004609519987184285,
          "lon": -0.00005236942943466786
        },
        "ne": {
          "lat": 0.00048032190068170166,
          "lon": -0.000023610614761493413
        }
      },
      "epsg": 27700
    },
    {
      "name": "inspire-wg:lsoa_cars_household",
      "title": "LSOA_cars_household",
      "bbox": {
        "sw": {
          "lat": 0.0004609519987184285,
          "lon": -0.00005236942943466786
        },
        "ne": {
          "lat": 0.00048032190068170166,
          "lon": -0.000023610614761493413
        }
      },
      "epsg": 27700
    },
    {
      "name": "inspire-wg:Life_Sciences_businesses",
      "title": "Life Sciences - Businesses",
      "bbox": {
        "sw": {
          "lat": 0.0004615131319667398,
          "lon": -0.00004539782329912323
        },
        "ne": {
          "lat": 0.0004790903413010028,
          "lon": -0.00002386866975319482
        }
      },
      "epsg": 27700
    },
    {
      "name": "inspire-wg:Life_Sciences_Centres_Excellence",
      "title": "Life Sciences - Centres of Excellence",
      "bbox": {
        "sw": {
          "lat": 0.00046230345020603636,
          "lon": -0.000037672216254619444
        },
        "ne": {
          "lat": 0.00047854111326728344,
          "lon": -0.000028364906934996932
        }
      },
      "epsg": 27700
    },
    {
      "name": "inspire-wg:Lifeboat_Stations",
      "title": "Lifeboat_Stations",
      "bbox": {
        "sw": {
          "lat": 0.0004613242391400263,
          "lon": -0.00004868596600265656
        },
        "ne": {
          "lat": 0.0004794326265766813,
          "lon": -0.00002768782109598129
        }
      },
      "epsg": 27700
    },
    {
      "name": "inspire-wg:Link_ATM_OA",
      "title": "Link_ATM_OA",
      "bbox": {
        "sw": {
          "lat": 0.0004614879772901759,
          "lon": -0.00003973053346103708
        },
        "ne": {
          "lat": 0.00047670793765064445,
          "lon": -0.000026826322170557156
        }
      },
      "epsg": 27700
    },
    {
      "name": "inspire-wg:local_health_boards",
      "title": "Local Health Boards",
      "bbox": {
        "sw": {
          "lat": 0.0004609514670903536,
          "lon": -0.00005237226082900987
        },
        "ne": {
          "lat": 0.0004803218513416141,
          "lon": -0.000023610850564266225
        }
      },
      "epsg": 27700
    },
    {
      "name": "inspire-wg:Local_Authorities",
      "title": "Local_Authorities",
      "bbox": {
        "sw": {
          "lat": 0.0004610493891874512,
          "lon": -0.00005222234702757841
        },
        "ne": {
          "lat": 0.0004802276770021763,
          "lon": -0.00002374719203886492
        }
      },
      "epsg": 27700
    },
    {
      "name": "inspire-wg:localauthorities_no_labels",
      "title": "Local_Authorities_no_labels",
      "bbox": {
        "sw": {
          "lat": 0.00046095193984285743,
          "lon": -0.0000523714042160093
        },
        "ne": {
          "lat": 0.00048032188200863857,
          "lon": -0.00002361122766900738
        }
      },
      "epsg": 27700
    },
    {
      "name": "appdata-ons:lsoa_wales_2011",
      "title": "Lower Super Output Areas, Wales (2011)",
      "bbox": {
        "sw": {
          "lat": 0.0004610494478640703,
          "lon": -0.0000522203803051045
        },
        "ne": {
          "lat": 0.0004802276968263186,
          "lon": -0.000023746570996984425
        }
      },
      "epsg": 27700
    },
    {
      "name": "inspire-wg:M4CaN_MainlineWeek47Plan",
      "title": "M4CaN_MainlineWeek47Plan",
      "bbox": {
        "sw": {
          "lat": 0.00046303377513368105,
          "lon": -0.000027863895725809047
        },
        "ne": {
          "lat": 0.00046343702713613766,
          "lon": -0.000025068612609516586
        }
      },
      "epsg": 27700
    },
    {
      "name": "appdata-wg-marine:mresf_daysfishedall",
      "title": "MRESF - Days Fished",
      "bbox": {
        "sw": {
          "lat": 0.0004033884673759758,
          "lon": -0.00018065120911931747
        },
        "ne": {
          "lat": 0.0005757751923169963,
          "lon": 0.000018954451552551706
        }
      },
      "epsg": 4326
    },
    {
      "name": "appdata-wg-marine:mresf_fishingsatellite_wgs84",
      "title": "MRESF - Fishing Satellite Data - WGS84",
      "bbox": {
        "sw": {
          "lat": 0.000425210026833156,
          "lon": -0.00017972595575365327
        },
        "ne": {
          "lat": 0.0005749143114002209,
          "lon": 0.000014435926555831697
        }
      },
      "epsg": 4326
    },