{
  "title": "",
  "version": "2.0.0",
  "featureTypes": [
    {
      "name": "inspire-wg:NAP_uk_w_agg_areas_2015",
      "title": "(Noise Action Plan) Agglomerations",
      "bbox": {
        "sw": {
          "lat": 51.40316025228717,
          "lon": -4.059058568673821
        },
        "ne": {
          "lat": 51.75521120092522,
          "lon": -2.8792220122168315
        }
      },
      "epsg": 27700
    },
    {
      "name": "inspire-wg:NAP_r2industrylocations",
      "title": "(Noise Action Plan) Industry Locations",
      "bbox": {
        "sw": {
          "lat": 51.45399545829443,
          "lon": -4.027444729935007
        },
        "ne": {
          "lat": 51.70807760615549,
          "lon": -2.867990194342288
        }
      },
      "epsg": 27700
    },
    {
      "name": "inspire-wg:r3industrylocations_2017",
      "title": "(Noise Action Plan) Industry Locations, 2017",
      "bbox": {
        "sw": {
          "lat": 51.452992751512994,
          "lon": -4.033382479232712
        },
        "ne": {
          "lat": 51.708922925618026,
          "lon": -2.914003706619988
        }
      },
      "epsg": 27700
    },
    {
      "name": "inspire-wg:NAP_majorroadsr2",
      "title": "(Noise Action Plan) Major Roads",
      "bbox": {
        "sw": {
          "lat": 51.352723639670074,
          "lon": -5.167887007743808
        },
        "ne": {
          "lat": 53.355852681455424,
          "lon": -2.645494459036012
        }
      },
      "epsg": 27700
    },
    {
      "name": "inspire-wg:majorroadsr3_2017",
      "title": "(Noise Action Plan) Major Roads, 2017",
      "bbox": {
        "sw": {
          "lat": 51.352723639670074,
          "lon": -5.167887007743808
        },
        "ne": {
          "lat": 53.355852681455424,
          "lon": -2.645494459036012
        }
      },
      "epsg": 27700
    },
    {
      "name": "inspire-wg:NAP_priorityareas_railways",
      "title": "(Noise Action Plan) Priority Areas (Railways)",
      "bbox": {
        "sw": {
          "lat": 51.4677367804701,
          "lon": -3.8131921915108573
        },
        "ne": {
          "lat": 51.62909433341029,
          "lon": -2.802269699696944
        }
      },
      "epsg": 27700
    },
    {
      "name": "inspire-wg:priorityareas_railways_2017",
      "title": "(Noise Action Plan) Priority Areas (Railways) 2017",
      "bbox": {
        "sw": {
          "lat": 51.4677367804701,
          "lon": -3.8131921915108573
        },
        "ne": {
          "lat": 51.62909433341029,
          "lon": -2.802269699696944
        }
      },
      "epsg": 27700
    },
    {
      "name": "inspire-wg:NAP_priorityareas_roads",
      "title": "(Noise Action Plan) Priority Areas (Roads)",
      "bbox": {
        "sw": {
          "lat": 51.35280490351301,
          "lon": -5.163192841433898
        },
        "ne": {
          "lat": 53.32060701566207,
          "lon": -2.6621581378924124
        }
      },
      "epsg": 27700
    },
    {
      "name": "inspire-wg:NAP_quietareas",
      "title": "(Noise Action Plan) Quiet Areas",
      "bbox": {
        "sw": {
          "lat": 51.42211619734143,
          "lon": -4.045853948968642
        },
        "ne": {
          "lat": 51.736293983981156,
          "lon": -2.9245744223090995
        }
      },
      "epsg": 27700
    },
    {
      "name": "inspire-wg:mobile_coverage_5km_grid",
      "title": "5km grid showing priority areas with no mobile coverage",
      "bbox": {
        "sw": {
          "lat": 51.332684189646514,
          "lon": -5.481040493709497
        },
        "ne": {
          "lat": 53.489157373175125,
          "lon": -2.598872324711966
        }
      },
      "epsg": 27700
    },
    {
      "name": "appdata-wg-marine:abpmer_bottom_culture_blue_mussel",
      "title": "ABPMER - Aquaculture Potential - Bottom Culture - Blue Mussel",
      "bbox": {
        "sw": {
          "lat": 51.33505332237203,
          "lon": -5.464765380675305
        },
        "ne": {
          "lat": 53.51353475457063,
          "lon": -2.653859046352894
        }
      },
      "epsg": 32630
    },
    {
      "name": "appdata-wg-marine:abpmer_bottom_culture_european_clam",
      "title": "ABPMER - Aquaculture Potential - Bottom Culture - European Clam",
      "bbox": {
        "sw": {
          "lat": 51.366518024342966,
          "lon": -5.3848665219850576
        },
        "ne": {
          "lat": 53.43457405518943,
          "lon": -2.652232926628351
        }
      },
      "epsg": 32630
    },
    {
      "name": "appdata-wg-marine:abpmer_bottom_culture_king_scallop",
      "title": "ABPMER - Aquaculture Potential - Bottom Culture - King Scallop",
      "bbox": {
        "sw": {
          "lat": 51.337475270246365,
          "lon": -5.603590233551627
        },
        "ne": {
          "lat": 53.56845338707459,
          "lon": -3.221381487543314
        }
      },
      "epsg": 32630
    },
    {
      "name": "appdata-wg-marine:abpmer_bottom_culture_oyster",
      "title": "ABPMER - Aquaculture Potential - Bottom Culture - Oyster",
      "bbox": {
        "sw": {
          "lat": 51.33535492164315,
          "lon": -5.457719479869203
        },
        "ne": {
          "lat": 53.469539602049004,
          "lon": -2.679566480646971
        }
      },
      "epsg": 32630
    },
    {
      "name": "appdata-wg-marine:abpmer_cage_culture_cod",
      "title": "ABPMER - Aquaculture Potential - Cage Culture - Cod",
      "bbox": {
        "sw": {
          "lat": 51.3295289442215,
          "lon": -5.738749981602708
        },
        "ne": {
          "lat": 53.5133426890116,
          "lon": -3.23511261843913
        }
      },
      "epsg": 32630
    },
    {
      "name": "appdata-wg-marine:abpmer_cage_culture_salmon_trout",
      "title": "ABPMER - Aquaculture Potential - Cage Culture - Salmon and Trout",
      "bbox": {
        "sw": {
          "lat": 51.32739663789178,
          "lon": -5.814834521448225
        },
        "ne": {
          "lat": 53.65293869270072,
          "lon": -3.2347917459353637
        }
      },
      "epsg": 32630
    },
    {
      "name": "appdata-wg-marine:abpmer_ranching_lobsters",
      "title": "ABPMER - Aquaculture Potential - Ranching - Lobster",
      "bbox": {
        "sw": {
          "lat": 51.328556387787415,
          "lon": -5.793506898614187
        },
        "ne": {
          "lat": 53.4560216880342,
          "lon": -3.2374685491762105
        }
      },
      "epsg": 32630
    },
    {
      "name": "appdata-wg-marine:abpmer_rope_culture_macroalgae_high",
      "title": "ABPMER - Aquaculture Potential - Rope Culture - Macro Algae - High Exposure",
      "bbox": {
        "sw": {
          "lat": 51.360344392629315,
          "lon": -5.511463337161848
        },
        "ne": {
          "lat": 53.42488618366593,
          "lon": -3.5340915428041613
        }
      },
      "epsg": 32630
    },
    {
      "name": "appdata-wg-marine:abpmer_rope_culture_macroalgae_medium",
      "title": "ABPMER - Aquaculture Potential - Rope Culture - Macro Algae - Moderate Exposure",
      "bbox": {
        "sw": {
          "lat": 51.32822664875778,
          "lon": -5.798398272807668
        },
        "ne": {
          "lat": 53.51998882915863,
          "lon": -2.954523424938952
        }
      },
      "epsg": 32630
    },
    {
      "name": "appdata-wg-marine:abpmer_rope_culture_scallop",
      "title": "ABPMER - Aquaculture Potential - Rope Culture - Scallops",
      "bbox": {
        "sw": {
          "lat": 51.327396596980364,
          "lon": -5.814836408956056
        },
        "ne": {
          "lat": 53.65293947638148,
          "lon": -3.2344313555349284
        }
      },
      "epsg": 32630
    },
    {
      "name": "appdata-wg-marine:abpmer_rope_culture_shellfish",
      "title": "ABPMER - Aquaculture Potential - Rope Culture - Shellfish",
      "bbox": {
        "sw": {
          "lat": 51.324720163547276,
          "lon": -5.817724715679044
        },
        "ne": {
          "lat": 53.65305513565155,
          "lon": -2.6654222552782345
        }
      },
      "epsg": 32630
    },
    {
      "name": "appdata-wg-marine:abpmer_trestle_culture_shellfish",
      "title": "ABPMER - Aquaculture Potential - Trestle Culture - Shellfish",
      "bbox": {
        "sw": {
          "lat": 51.35318660298411,
          "lon": -5.434222130291754
        },
        "ne": {
          "lat": 53.4448520867194,
          "lon": -2.6545498160083296
        }
      },
      "epsg": 32630
    },
    {
      "name": "appdata-wg-marine:abpmer_ranching_crawfish",
      "title": "ABPMER - Aquaculture Potential -Ranching - Crawfish",
      "bbox": {
        "sw": {
          "lat": 51.265111529338846,
          "lon": -5.804909988280916
        },
        "ne": {
          "lat": 53.5204206185418,
          "lon": -3.237107936795766
        }
      },
      "epsg": 32630
    },
    {
      "name": "appdata-wg-marine:abpmer_renewable_tide_np_range",
      "title": "ABPmer -  Renewable Tide Neap Range",
      "bbox": {
        "sw": {
          "lat": 50.5311622619629,
          "lon": -7.62459754943848
        },
        "ne": {
          "lat": 54.3355026245117,
          "lon": -2.65437579154968
        }
      },
      "epsg": 4326
    },
    {
      "name": "appdata-wg-marine:abpmer_renewable_tide_av_pow",
      "title": "ABPmer - Renewable Tide Average Power",
      "bbox": {
        "sw": {
          "lat": 50.5311622619629,
          "lon": -7.62459754943848
        },
        "ne": {
          "lat": 54.3355026245117,
          "lon": -2.65437579154968
        }
      },
      "epsg": 4326
    },
    {
      "name": "appdata-wg-marine:abpmer_renewable_tide_np_flow",
      "title": "ABPmer - Renewable Tide Neap Flow",
      "bbox": {
        "sw": {
          "lat": 50.5311622619629,
          "lon": -7.62459754943848
        },
        "ne": {
          "lat": 54.3355026245117,
          "lon": -2.65437579154968
        }
      },
      "epsg": 4326
    },
    {
      "name": "appdata-wg-marine:abpmer_renewable_tide_sp_flow",
      "title": "ABPmer - Renewable Tide Spring Flow",
      "bbox": {
        "sw": {
          "lat": 50.5311622619629,
          "lon": -7.62459754943848
        },
        "ne": {
          "lat": 54.3355026245117,
          "lon": -2.65437579154968
        }
      },
      "epsg": 4326
    },
    {
      "name": "appdata-wg-marine:abpmer_renewable_tide_sp_range",
      "title": "ABPmer - Renewable Tide Spring Range",
      "bbox": {
        "sw": {
          "lat": 50.5311622619629,
          "lon": -7.62459754943848
        },
        "ne": {
          "lat": 54.3355026245117,
          "lon": -2.65437579154968
        }
      },
      "epsg": 4326
    },
    {
      "name": "appdata-wg-marine:abpmer_renewable_wave_annual_power",
      "title": "ABPmer - Renewable Wave Annual Power",
      "bbox": {
        "sw": {
          "lat": 50.6488914489746,
          "lon": -7.35500574111938
        },
        "ne": {
          "lat": 54.2399978637695,
          "lon": -2.97833323478699
        }
      },
      "epsg": 4326
    },
    {
      "name": "appdata-wg-marine:abpmer_renewable_wave_au_height",
      "title": "ABPmer - Renewable Wave Autumn Height",
      "bbox": {
        "sw": {
          "lat": 50.6488914489746,
          "lon": -7.35500574111938
        },
        "ne": {
          "lat": 54.2399978637695,
          "lon": -2.97833323478699
        }
      },
      "epsg": 4326
    },
    {
      "name": "appdata-wg-marine:abpmer_renewable_wave_sp_height",
      "title": "ABPmer - Renewable Wave Spring Height",
      "bbox": {
        "sw": {
          "lat": 50.6488914489746,
          "lon": -7.35500574111938
        },
        "ne": {
          "lat": 54.2399978637695,
          "lon": -2.97833323478699
        }
      },
      "epsg": 4326
    },
    {
      "name": "appdata-wg-marine:abpmer_renewable_wave_su_height",
      "title": "ABPmer - Renewable Wave Summer Height",
      "bbox": {
        "sw": {
          "lat": 50.6488914489746,
          "lon": -7.35500574111938
        },
        "ne": {
          "lat": 54.2399978637695,
          "lon": -2.97833323478699
        }
      },
      "epsg": 4326
    },
    {
      "name": "appdata-wg-marine:abpmer_renewable_wave_wi_height",
      "title": "ABPmer - Renewable Wave Winter Height",
      "bbox": {
        "sw": {
          "lat": 50.6488914489746,
          "lon": -7.35500574111938
        },
        "ne": {
          "lat": 54.2399978637695,
          "lon": -2.97833323478699
        }
      },
      "epsg": 4326
    },
    {
      "name": "appdata-wg-marine:abpmer_renewable_wind_annual_power",
      "title": "ABPmer - Renewable Wind Annual Power",
      "bbox": {
        "sw": {
          "lat": 50.5366668701172,
          "lon": -7.62382555007935
        },
        "ne": {
          "lat": 54.352222442627,
          "lon": -2.80950665473938
        }
      },
      "epsg": 4326
    },
    {
      "name": "appdata-wg-marine:abpmer_renewable_wind_speed_autumn",
      "title": "ABPmer - Renewable Wind Speed Autumn",
      "bbox": {
        "sw": {
          "lat": 50.5366668701172,
          "lon": -7.62382555007935
        },
        "ne": {
          "lat": 54.352222442627,
          "lon": -2.80950665473938
        }
      },
      "epsg": 4326
    },
    {
      "name": "appdata-wg-marine:abpmer_renewable_wind_speed_spring",
      "title": "ABPmer - Renewable Wind Speed Spring",
      "bbox": {
        "sw": {
          "lat": 50.5366668701172,
          "lon": -7.62382555007935
        },
        "ne": {
          "lat": 54.352222442627,
          "lon": -2.80950665473938
        }
      },
      "epsg": 4326
    },
    {
      "name": "appdata-wg-marine:abpmer_renewable_wind_speed_summer",
      "title": "ABPmer - Renewable Wind Speed Summer",
      "bbox": {
        "sw": {
          "lat": 50.5366668701172,
          "lon": -7.62382555007935
        },
        "ne": {
          "lat": 54.352222442627,
          "lon": -2.80950665473938
        }
      },
      "epsg": 4326
    },
    {
      "name": "appdata-wg-marine:abpmer_renewable_wind_speed_winter",
      "title": "ABPmer - Renewable Wind Speed Winter",
      "bbox": {
        "sw": {
          "lat": 50.5366668701172,
          "lon": -7.62382555007935
        },
        "ne": {
          "lat": 54.352222442627,
          "lon": -2.80950665473938
        }
      },
      "epsg": 4326
    },
    {
      "name": "appdata-wg-marine:ais_density_grid_2015_all",
      "title": "AIS Density Grid 2015 ALL",
      "bbox": {
        "sw": {
          "lat": 49.70293059193094,
          "lon": -9.857179822004456
        },
        "ne": {
          "lat": 55.11163552716131,
          "lon": -1.4618332762496007
        }
      },
      "epsg": 32630
    },
    {
      "name": "appdata-wg-marine:ais_density_grid_2015_st0",
      "title": "AIS Density Grid 2015 ST0",
      "bbox": {
        "sw": {
          "lat": 49.70293059193094,
          "lon": -9.857179822004456
        },
        "ne": {
          "lat": 55.11163552716131,
          "lon": -1.4618332762496007
        }
      },
      "epsg": 32630
    },
    {
      "name": "appdata-wg-marine:ais_density_grid_2015_st1",
      "title": "AIS Density Grid 2015 ST1",
      "bbox": {
        "sw": {
          "lat": 49.70293059193094,
          "lon": -9.857179822004456
        },
        "ne": {
          "lat": 55.11163552716131,
          "lon": -1.4618332762496007
        }
      },
      "epsg": 32630
    },
    {
      "name": "appdata-wg-marine:ais_density_grid_2015_st10",
      "title": "AIS Density Grid 2015 ST10",
      "bbox": {
        "sw": {
          "lat": 49.70293059193094,
          "lon": -9.857179822004456
        },
        "ne": {
          "lat": 55.11163552716131,
          "lon": -1.4618332762496007
        }
      },
      "epsg": 32630
    },
    {
      "name": "appdata-wg-marine:ais_density_grid_2015_st2",
      "title": "AIS Density Grid 2015 ST2",
      "bbox": {
        "sw": {
          "lat": 49.70293059193094,
          "lon": -9.857179822004456
        },
        "ne": {
          "lat": 55.11163552716131,
          "lon": -1.4618332762496007
        }
      },
      "epsg": 32630
    },
    {
      "name": "appdata-wg-marine:ais_density_grid_2015_st3",
      "title": "AIS Density Grid 2015 ST3",
      "bbox": {
        "sw": {
          "lat": 49.70293059193094,
          "lon": -9.857179822004456
        },
        "ne": {
          "lat": 55.11163552716131,
          "lon": -1.4618332762496007
        }
      },
      "epsg": 32630
    },
    {
      "name": "appdata-wg-marine:ais_density_grid_2015_st4",
      "title": "AIS Density Grid 2015 ST4",
      "bbox": {
        "sw": {
          "lat": 49.70293059193094,
          "lon": -9.857179822004456
        },
        "ne": {
          "lat": 55.11163552716131,
          "lon": -1.4618332762496007
        }
      },
      "epsg": 32630
    },
    {
      "name": "appdata-wg-marine:ais_density_grid_2015_st5",
      "title": "AIS Density Grid 2015 ST5",
      "bbox": {
        "sw": {
          "lat": 49.70293059193094,
          "lon": -9.857179822004456
        },
        "ne": {
          "lat": 55.11163552716131,
          "lon": -1.4618332762496007
        }
      },
      "epsg": 32630
    },
    {
      "name": "appdata-wg-marine:ais_density_grid_2015_st6",
      "title": "AIS Density Grid 2015 ST6",
      "bbox": {
        "sw": {
          "lat": 49.70293059193094,
          "lon": -9.857179822004456
        },
        "ne": {
          "lat": 55.11163552716131,
          "lon": -1.4618332762496007
        }
      },
      "epsg": 32630
    },
    {
      "name": "appdata-wg-marine:ais_density_grid_2015_st7",
      "title": "AIS Density Grid 2015 ST7",
      "bbox": {
        "sw": {
          "lat": 49.70293059193094,
          "lon": -9.857179822004456
        },
        "ne": {
          "lat": 55.11163552716131,
          "lon": -1.4618332762496007
        }
      },
      "epsg": 32630
    },
    {
      "name": "appdata-wg-marine:ais_density_grid_2015_st8",
      "title": "AIS Density Grid 2015 ST8",
      "bbox": {
        "sw": {
          "lat": 49.70293059193094,
          "lon": -9.857179822004456
        },
        "ne": {
          "lat": 55.11163552716131,
          "lon": -1.4618332762496007
        }
      },
      "epsg": 32630
    },
    {
      "name": "appdata-wg-marine:ais_density_grid_2015_st9",
      "title": "AIS Density Grid 2015 ST9",
      "bbox": {
        "sw": {
          "lat": 49.70293059193094,
          "lon": -9.857179822004456
        },
        "ne": {
          "lat": 55.11163552716131,
          "lon": -1.4618332762496007
        }
      },
      "epsg": 32630
    },
    {
      "name": "appdata-wg-marine:ais_transit_lines_marapr2015",
      "title": "AIS Transit Line MarApr 2015",
      "bbox": {
        "sw": {
          "lat": 47.804717020016696,
          "lon": -10.990160284416088
        },
        "ne": {
          "lat": 56.04464475641429,
          "lon": 0.1739032925248104
        }
      },
      "epsg": 32630
    },
    {
      "name": "appdata-wg-marine:ais_transit_lines_mayjun2015",
      "title": "AIS Transit Line MayJun 2015",
      "bbox": {
        "sw": {
          "lat": 48.1716892115265,
          "lon": -8.742079190960345
        },
        "ne": {
          "lat": 55.806703271436284,
          "lon": -2.372992777375617
        }
      },
      "epsg": 32630
    },
    {
      "name": "appdata-wg-marine:ais_transit_lines_janfeb2015",
      "title": "AIS Transit Lines JanFeb 2015",
      "bbox": {
        "sw": {
          "lat": 48.64342876307178,
          "lon": -10.295774978877787
        },
        "ne": {
          "lat": 59.705740365783406,
          "lon": 4.265796036003365
        }
      },
      "epsg": 32630
    },
    {
      "name": "appdata-wg-marine:ais_transit_lines_julaug2015",
      "title": "AIS Transit Lines JulAug 2015",
      "bbox": {
        "sw": {
          "lat": 47.894959853271445,
          "lon": -10.769642487675686
        },
        "ne": {
          "lat": 59.20269435484282,
          "lon": 3.0825624619199465
        }
      },
      "epsg": 32630
    },
    {
      "name": "appdata-wg-marine:ais_transit_lines_novdec2015",
      "title": "AIS Transit Lines NovDec 2015",
      "bbox": {
        "sw": {
          "lat": 47.79778231830316,
          "lon": -10.908236930662206
        },
        "ne": {
          "lat": 59.18258574869209,
          "lon": 3.870626151402588
        }
      },
      "epsg": 32630
    },
    {
      "name": "appdata-wg-marine:ais_transit_lines_sepoct2015",
      "title": "AIS Transit Lines SepOct 2015",
      "bbox": {
        "sw": {
          "lat": 47.83560920560354,
          "lon": -9.855036376383643
        },
        "ne": {
          "lat": 57.19705168827274,
          "lon": 2.157524004489755
        }
      },
      "epsg": 32630
    },
    {
      "name": "inspire-wg:activetravelDLs",
      "title": "Active Travel Designated Localities",
      "bbox": {
        "sw": {
          "lat": 51.34028196975568,
          "lon": -5.197497957039668
        },
        "ne": {
          "lat": 53.448009422850184,
          "lon": -2.6352854543463486
        }
      },
      "epsg": 27700
    },
    {
      "name": "inspire-wg:activetravel_routesection_approvedroutes",
      "title": "Active Travel Route Sections - Approved Routes",
      "bbox": {
        "sw": {
          "lat": 51.340034029187734,
          "lon": -5.220097862696078
        },
        "ne": {
          "lat": 53.44332005897202,
          "lon": -2.654044868136215
        }
      },
      "epsg": 27700
    },
    {
      "name": "appdata-wg-marine:draft_aggregates_sra",
      "title": "Aggregates SRA",
      "bbox": {
        "sw": {
          "lat": 51.3139279970001,
          "lon": -4.88510297599993
        },
        "ne": {
          "lat": 53.5423241,
          "lon": -2.70880559999995
        }
      },
      "epsg": 4326
    },
    {
      "name": "inspire-wg:AgriculturalSmallAreas",
      "title": "Agricultural Small Areas",
      "bbox": {
        "sw": {
          "lat": 51.48965696978918,
          "lon": -5.829369314566873
        },
        "ne": {
          "lat": 53.46797200421338,
          "lon": -2.6867350221722175
        }
      },
      "epsg": 27700
    },
    {
      "name": "inspire-wg:aq_mapbz2016g_grid",
      "title": "Air Quality - Benzene (2016)",
      "bbox": {
        "sw": {
          "lat": 51.264001073173525,
          "lon": -5.528082586672343
        },
        "ne": {
          "lat": 53.530967403357955,
          "lon": -2.6039513025693526
        }
      },
      "epsg": 27700
    },
    {
      "name": "inspire-wg:aq_mapno22016g_grid",
      "title": "Air Quality - NO2 (2016)",
      "bbox": {
        "sw": {
          "lat": 51.264001073173525,
          "lon": -5.528082586672343
        },
        "ne": {
          "lat": 53.530967403357955,
          "lon": -2.6039513025693526
        }
      },
      "epsg": 27700
    },
    {
      "name": "inspire-wg:aq_mapnox2016g_grid",
      "title": "Air Quality - NOX (2016)",
      "bbox": {
        "sw": {
          "lat": 51.264001073173525,
          "lon": -5.528082586672343
        },
        "ne": {
          "lat": 53.530967403357955,
          "lon": -2.6039513025693526
        }
      },
      "epsg": 27700
    },
    {
      "name": "inspire-wg:aq_mapdgt2016g_grid",
      "title": "Air Quality - Ozone (2016)",
      "bbox": {
        "sw": {
          "lat": 51.264001073173525,
          "lon": -5.528082586672343
        },
        "ne": {
          "lat": 53.530967403357955,
          "lon": -2.6039513025693526
        }
      },
      "epsg": 27700
    },
    {
      "name": "inspire-wg:aq_mappm102016g_grid",
      "title": "Air Quality - PM10 (2016)",
      "bbox": {
        "sw": {
          "lat": 51.264001073173525,
          "lon": -5.528082586672343
        },
        "ne": {
          "lat": 53.530967403357955,
          "lon": -2.6039513025693526
        }
      },
      "epsg": 27700
    },
    {
      "name": "inspire-wg:aq_mappm252016g_grid",
      "title": "Air Quality - PM2_5 (2016)",
      "bbox": {
        "sw": {
          "lat": 51.264001073173525,
          "lon": -5.528082586672343
        },
        "ne": {
          "lat": 53.530967403357955,
          "lon": -2.6039513025693526
        }
      },
      "epsg": 27700
    },
    {
      "name": "inspire-wg:aq_mapso22016_grid",
      "title": "Air Quality - SO2 (2016)",
      "bbox": {
        "sw": {
          "lat": 51.264001073173525,
          "lon": -5.528082586672343
        },
        "ne": {
          "lat": 53.530967403357955,
          "lon": -2.6039513025693526
        }
      },
      "epsg": 27700
    },
    {
      "name": "inspire-wg:aqmas",
      "title": "Air Quality Management Areas",
      "bbox": {
        "sw": {
          "lat": 51.44506825831485,
          "lon": -5.022167252554424
        },
        "ne": {
          "lat": 52.516390400166635,
          "lon": -2.674620649569405
        }
      },
      "epsg": 27700
    },
    {
      "name": "inspire-wg:NAP_napst_aqmas_apr14",
      "title": "Air Quality Mngt. Areas (April 2014)",
      "bbox": {
        "sw": {
          "lat": 51.411791398256234,
          "lon": -5.0221672652835005
        },
        "ne": {
          "lat": 52.51639044415956,
          "lon": -2.674153095560635
        }
      },
      "epsg": 27700
    },
    {
      "name": "appdata-wg-marine:ports_wales",
      "title": "All Ports in Wales",
      "bbox": {
        "sw": {
          "lat": 51.344745572504536,
          "lon": -5.4098720773035325
        },
        "ne": {
          "lat": 53.44505797934555,
          "lon": -2.968001482616718
        }
      },
      "epsg": 27700
    },
    {
      "name": "appdata-wg-marine:ports_wales_pol",
      "title": "All Ports in Wales",
      "bbox": {
        "sw": {
          "lat": 51.355240091445154,
          "lon": -5.397219133044735
        },
        "ne": {
          "lat": 53.43476486574984,
          "lon": -2.979551776397797
        }
      },
      "epsg": 27700
    },
    {
      "name": "appdata-wg-marine:all_wales_sector_policies",
      "title": "All Wales Sector Policies",
      "bbox": {
        "sw": {
          "lat": 50.9418282211442,
          "lon": -7.04700489658699
        },
        "ne": {
          "lat": 53.983561304654,
          "lon": -2.65652756576964
        }
      },
      "epsg": 4326
    },
    {
      "name": "inspire-wg:Raptor_persecution_all_confirmed_Incidents_by10km_square_2013_count3",
      "title": "All confirmed incidents - Counts 2013 by 10km square",
      "bbox": {
        "sw": {
          "lat": 50.081771876794285,
          "lon": -6.291163195134253
        },
        "ne": {
          "lat": 55.319696817082566,
          "lon": 2.1312205813338583
        }
      },
      "epsg": 27700
    },
    {
      "name": "inspire-wg:All_Schools_Wales",
      "title": "All_Schools_Wales",
      "bbox": {
        "sw": {
          "lat": 51.35242237341121,
          "lon": -5.377936776802926
        },
        "ne": {
          "lat": 53.43278000459631,
          "lon": -2.667270204046715
        }
      },
      "epsg": 27700
    },
    {
      "name": "appdata-wg-marine:All_Wales_MPA_General_Policies",
      "title": "All_Wales_MPA_General_Policies",
      "bbox": {
        "sw": {
          "lat": 50.9266166687012,
          "lon": -7.06895732879639
        },
        "ne": {
          "lat": 53.9987716674805,
          "lon": -2.6345751285553
        }
      },
      "epsg": 4326
    },
    {
      "name": "inspire-wg:Ambulance_Stations",
      "title": "Ambulance_Stations",
      "bbox": {
        "sw": {
          "lat": 51.3813714219767,
          "lon": -5.143770450799835
        },
        "ne": {
          "lat": 53.428286126466375,
          "lon": -2.7116350509897553
        }
      },
      "epsg": 27700
    },
    {
      "name": "appdata-wg:vwAnchorCompanies",
      "title": "Anchor Companies",
      "bbox": {
        "sw": {
          "lat": 51.402844271943096,
          "lon": -5.02445710048914
        },
        "ne": {
          "lat": 53.252201065044005,
          "lon": -0.12195299756094
        }
      },
      "epsg": 4326
    },
    {
      "name": "inspire-wg:anchorcompanies",
      "title": "Anchor Companies",
      "bbox": {
        "sw": {
          "lat": 51.36278931958587,
          "lon": -5.149074584120027
        },
        "ne": {
          "lat": 53.272026411432705,
          "lon": -1.8227356472945961
        }
      },
      "epsg": 27700
    },
    {
      "name": "inspire-wg:assembly_constituencies",
      "title": "Assembly Constituencies",
      "bbox": {
        "sw": {
          "lat": 51.32335338957608,
          "lon": -5.813374522729716
        },
        "ne": {
          "lat": 53.458789423697404,
          "lon": -2.6435192724250585
        }
      },
      "epsg": 27700
    },
    {
      "name": "inspire-wg:Assembly_Constituencies",
      "title": "Assembly Constituencies",
      "bbox": {
        "sw": {
          "lat": 51.32335338957608,
          "lon": -5.813374522729723
        },
        "ne": {
          "lat": 53.458789423697404,
          "lon": -2.6435192724250602
        }
      },
      "epsg": 27700
    },
    {
      "name": "inspire-wg:assembly_electoral_regions",
      "title": "Assembly Electoral Regions",
      "bbox": {
        "sw": {
          "lat": 51.32335338957608,
          "lon": -5.813374522729716
        },
        "ne": {
          "lat": 53.458789423697404,
          "lon": -2.6435192724250585
        }
      },
      "epsg": 27700
    },
    {
      "name": "inspire-wg:Assembly_Electoral_Regions",
      "title": "Assembly Electoral Regions",
      "bbox": {
        "sw": {
          "lat": 51.32335338957608,
          "lon": -5.813374522729723
        },
        "ne": {
          "lat": 53.458789423697404,
          "lon": -2.6435192724250602
        }
      },
      "epsg": 27700
    },
    {
      "name": "inspire-wg:BGS_Coalfield_Boundaries",
      "title": "BGS Coalfield Boundaries",
      "bbox": {
        "sw": {
          "lat": 51.487394374238114,
          "lon": -5.247604625032688
        },
        "ne": {
          "lat": 53.44960546978465,
          "lon": -2.6236116881519576
        }
      },
      "epsg": 27700
    },
    {
      "name": "inspire-wg:BGS_Quarries",
      "title": "BGS Quarries",
      "bbox": {
        "sw": {
          "lat": 51.349585965482134,
          "lon": -5.368096018261483
        },
        "ne": {
          "lat": 53.41988546938296,
          "lon": -2.6454553797816636
        }
      },
      "epsg": 27700
    },
    {
      "name": "inspire-wg:buasd_populations_2015",
      "title": "BUASD Populations 2015",
      "bbox": {
        "sw": {
          "lat": 51.33448229495196,
          "lon": -5.404829287819124
        },
        "ne": {
          "lat": 53.455243945157314,
          "lon": -2.634294569428001
        }
      },
      "epsg": 27700
    },
    {
      "name": "inspire-wg:BasicPaymentSchemeRegions",
      "title": "Basic Payment Scheme Regions",
      "bbox": {
        "sw": {
          "lat": 51.32378204972014,
          "lon": -5.81312322879926
        },
        "ne": {
          "lat": 53.458479445398524,
          "lon": -2.643512285810758
        }
      },
      "epsg": 27700
    },
    {
      "name": "appdata-wg-marine:rspb_ud_blki",
      "title": "Black-legged Kittiwake 95% Utilisation Distributions in 5% Bands",
      "bbox": {
        "sw": {
          "lat": 51.242975949,
          "lon": -6.10137697399995
        },
        "ne": {
          "lat": 53.9829784728749,
          "lon": -3.10360836799993
        }
      },
      "epsg": 4326
    },
    {
      "name": "appdata-wg-marine:blue_flag_beaches",
      "title": "Blue Flag Beaches 2014",
      "bbox": {
        "sw": {
          "lat": 51.431437640876936,
          "lon": -5.41578260357722
        },
        "ne": {
          "lat": 53.359282204548975,
          "lon": -3.6760381622497906
        }
      },
      "epsg": 27700
    },
    {
      "name": "appdata-wg:wales_brma",
      "title": "Broad Rental Market Area",
      "bbox": {
        "sw": {
          "lat": 51.32943263263357,
          "lon": -5.618048730098514
        },
        "ne": {
          "lat": 53.459650290866,
          "lon": -2.453393285790522
        }
      },
      "epsg": 27700
    },
    {
      "name": "inspire-wg:bua_2011_wales",
      "title": "Built Up Areas Wales 2011",
      "bbox": {
        "sw": {
          "lat": 51.33453351833653,
          "lon": -5.404743940076509
        },
        "ne": {
          "lat": 53.45524776412136,
          "lon": -2.634266513531303
        }
      },
      "epsg": 27700
    },
    {
      "name": "inspire-wg:cadw_whs_arcs_of_view",
      "title": "CADW - World Heritage Sites (Arcs of view)",
      "bbox": {
        "sw": {
          "lat": 52.85167617367699,
          "lon": -4.290020158965214
        },
        "ne": {
          "lat": 53.282043148210136,
          "lon": -3.804423825112079
        }
      },
      "epsg": 27700
    },
    {
      "name": "inspire-wg:cadw_whs_essential_setting",
      "title": "CADW - World Heritage Sites (Essential Setting)",
      "bbox": {
        "sw": {
          "lat": 52.851428010285424,
          "lon": -4.293744622802201
        },
        "ne": {
          "lat": 53.29805508299467,
          "lon": -3.0410646398533667
        }
      },
      "epsg": 27700
    },
    {
      "name": "inspire-wg:cadw_whs_significant_view",
      "title": "CADW - World Heritage Sites (Significant View)",
      "bbox": {
        "sw": {
          "lat": 52.84661986267833,
          "lon": -4.299689549426355
        },
        "ne": {
          "lat": 53.28977174405694,
          "lon": -3.7878953345139346
        }
      },
      "epsg": 27700
    },
    {
      "name": "inspire-wg:cadw_whs_boundary",
      "title": "CADW - World Heritage Sites boundary",
      "bbox": {
        "sw": {
          "lat": 51.73047508820538,
          "lon": -4.28563766495604
        },
        "ne": {
          "lat": 53.292197189711025,
          "lon": -3.017400172003108
        }
      },
      "epsg": 27700
    },
    {
      "name": "inspire-wg:CADW_Historic_Parks_Gardens",
      "title": "CADW_Historic_Parks_Gardens",
      "bbox": {
        "sw": {
          "lat": 51.349564008965984,
          "lon": -5.385634807611771
        },
        "ne": {
          "lat": 53.43529752450713,
          "lon": -2.6627879369793273
        }
      },
      "epsg": 27700
    },
    {
      "name": "inspire-wg:wales_co2_emissions_2005_dom_total",
      "title": "CO2_Emissions_2005_Domestic",
      "bbox": {
        "sw": {
          "lat": 51.32378323566581,
          "lon": -5.813365079139653
        },
        "ne": {
          "lat": 53.45870046943393,
          "lon": -2.6435253255365234
        }
      },
      "epsg": 27700
    },
    {
      "name": "inspire-wg:wales_co2_emissions_2005_grand_total",
      "title": "CO2_Emissions_2005_Grand_Total",
      "bbox": {
        "sw": {
          "lat": 51.32378323566581,
          "lon": -5.813365079139653
        },
        "ne": {
          "lat": 53.45870046943393,
          "lon": -2.6435253255365234
        }
      },
      "epsg": 27700
    },
    {
      "name": "inspire-wg:wales_co2_emissions_2005_ic_total",
      "title": "CO2_Emissions_2005_Industrial_Commercial",
      "bbox": {
        "sw": {
          "lat": 51.32378323566581,
          "lon": -5.813365079139653
        },
        "ne": {
          "lat": 53.45870046943393,
          "lon": -2.6435253255365234
        }
      },
      "epsg": 27700
    },
    {
      "name": "inspire-wg:wales_co2_emissions_2005_transport_total",
      "title": "CO2_Emissions_2005_Transport",
      "bbox": {
        "sw": {
          "lat": 51.32378323566581,
          "lon": -5.813365079139653
        },
        "ne": {
          "lat": 53.45870046943393,
          "lon": -2.6435253255365234
        }
      },
      "epsg": 27700
    },
    {
      "name": "inspire-wg:wales_co2_emissions_2010_dom_total",
      "title": "CO2_Emissions_2010_Domestic",
      "bbox": {
        "sw": {
          "lat": 51.32378323566581,
          "lon": -5.813365079139653
        },
        "ne": {
          "lat": 53.45870046943393,
          "lon": -2.6435253255365234
        }
      },
      "epsg": 27700
    },
    {
      "name": "inspire-wg:wales_co2_emissions_2010_grand_total",
      "title": "CO2_Emissions_2010_Grand_Total",
      "bbox": {
        "sw": {
          "lat": 51.32378323566581,
          "lon": -5.813365079139653
        },
        "ne": {
          "lat": 53.45870046943393,
          "lon": -2.6435253255365234
        }
      },
      "epsg": 27700
    },
    {
      "name": "inspire-wg:wales_co2_emissions_2010_ic_total",
      "title": "CO2_Emissions_2010_Industrial_Commercial",
      "bbox": {
        "sw": {
          "lat": 51.32378323566581,
          "lon": -5.813365079139653
        },
        "ne": {
          "lat": 53.45870046943393,
          "lon": -2.6435253255365234
        }
      },
      "epsg": 27700
    },
    {
      "name": "inspire-wg:wales_co2_emissions_2010_transport_total",
      "title": "CO2_Emissions_2010_Transport",
      "bbox": {
        "sw": {
          "lat": 51.32378323566581,
          "lon": -5.813365079139653
        },
        "ne": {
          "lat": 53.45870046943393,
          "lon": -2.6435253255365234
        }
      },
      "epsg": 27700
    },
    {
      "name": "inspire-wg:wales_co2_emissions_2015_dom_total",
      "title": "CO2_Emissions_2015_Domestic",
      "bbox": {
        "sw": {
          "lat": 51.32378323566581,
          "lon": -5.813365079139653
        },
        "ne": {
          "lat": 53.45870046943393,
          "lon": -2.6435253255365234
        }
      },
      "epsg": 27700
    },
    {
      "name": "inspire-wg:wales_co2_emissions_2015_grand_total",
      "title": "CO2_Emissions_2015_Grand_Total",
      "bbox": {
        "sw": {
          "lat": 51.32378323566581,
          "lon": -5.813365079139653
        },
        "ne": {
          "lat": 53.45870046943393,
          "lon": -2.6435253255365234
        }
      },
      "epsg": 27700
    },
    {
      "name": "inspire-wg:wales_co2_emissions_2015_ic_total",
      "title": "CO2_Emissions_2015_Industrial_Commercial",
      "bbox": {
        "sw": {
          "lat": 51.32378323566581,
          "lon": -5.813365079139653
        },
        "ne": {
          "lat": 53.45870046943393,
          "lon": -2.6435253255365234
        }
      },
      "epsg": 27700
    },
    {
      "name": "inspire-wg:wales_co2_emissions_2015_transport_total",
      "title": "CO2_Emissions_2015_Transport",
      "bbox": {
        "sw": {
          "lat": 51.32378323566581,
          "lon": -5.813365079139653
        },
        "ne": {
          "lat": 53.45870046943393,
          "lon": -2.6435253255365234
        }
      },
      "epsg": 27700
    },
    {
      "name": "inspire-wg:Cadw_HistoricLandscapes",
      "title": "Cadw Historic Landscapes",
      "bbox": {
        "sw": {
          "lat": 51.36612957481803,
          "lon": -5.475959004015287
        },
        "ne": {
          "lat": 53.440713434388464,
          "lon": -2.6154689344573026
        }
      },
      "epsg": 27700
    },
    {
      "name": "inspire-wg:Cadw_DesignatedWrecks",
      "title": "Cadw_DesignatedWrecks",
      "bbox": {
        "sw": {
          "lat": 51.7191150923917,
          "lon": -5.813559518286905
        },
        "ne": {
          "lat": 53.44073430217336,
          "lon": -3.4934044903624546
        }
      },
      "epsg": 27700
    },
    {
      "name": "inspire-wg:Cadw_ListedBuildings",
      "title": "Cadw_ListedBuildings",
      "bbox": {
        "sw": {
          "lat": 51.32447714533985,
          "lon": -5.812018659608335
        },
        "ne": {
          "lat": 53.449047351302085,
          "lon": -2.6582899610342423
        }
      },
      "epsg": 27700
    },
    {
      "name": "inspire-wg:Cadw_SAM",
      "title": "Cadw_SAM",
      "bbox": {
        "sw": {
          "lat": 51.334480893564276,
          "lon": -5.44071166150349
        },
        "ne": {
          "lat": 53.452696926231,
          "lon": -2.662034895000377
        }
      },
      "epsg": 27700
    },
    {
      "name": "inspire-wg:SKH_Carbon_Mitigation_En_Cy_Agri",
      "title": "Carbon Mitigation (Agri and Land Use)",
      "bbox": {
        "sw": {
          "lat": -25,
          "lon": -78
        },
        "ne": {
          "lat": 53.5,
          "lon": 138
        }
      },
      "epsg": 4326
    },
    {
      "name": "inspire-wg:SKH_Carbon_Mitigation_En_Cy_Air_Quality",
      "title": "Carbon Mitigation (Air Quality)",
      "bbox": {
        "sw": {
          "lat": 53.9999,
          "lon": -1.0001
        },
        "ne": {
          "lat": 54.0001,
          "lon": -0.9999
        }
      },
      "epsg": 4326
    },
    {
      "name": "inspire-wg:SKH_Carbon_Mitigation_En_Cy_Business",
      "title": "Carbon Mitigation (Business)",
      "bbox": {
        "sw": {
          "lat": -32.5,
          "lon": -120
        },
        "ne": {
          "lat": 56.5,
          "lon": 136
        }
      },
      "epsg": 4326
    },
    {
      "name": "inspire-wg:SKH_Carbon_Mitigation_En_Cy_CAP_Trade",
      "title": "Carbon Mitigation (CAP and Trade)",
      "bbox": {
        "sw": {
          "lat": 44.4999,
          "lon": -80.0001
        },
        "ne": {
          "lat": 44.5001,
          "lon": -79.9999
        }
      },
      "epsg": 4326
    },
    {
      "name": "inspire-wg:SKH_Carbon_Mitigation_En_Cy_Energy",
      "title": "Carbon Mitigation (Energy)",
      "bbox": {
        "sw": {
          "lat": -39,
          "lon": -120
        },
        "ne": {
          "lat": 60,
          "lon": 178
        }
      },
      "epsg": 4326
    },
    {
      "name": "inspire-wg:SKH_Carbon_Mitigation_En_Cy_Health",
      "title": "Carbon Mitigation (Health)",
      "bbox": {
        "sw": {
          "lat": 41,
          "lon": -74
        },
        "ne": {
          "lat": 53.5,
          "lon": -0.5
        }
      },
      "epsg": 4326
    },
    {
      "name": "inspire-wg:SKH_Carbon_Mitigation_En_Cy_Heating",
      "title": "Carbon Mitigation (Heating)",
      "bbox": {
        "sw": {
          "lat": 47.6829,
          "lon": 14.911900000000001
        },
        "ne": {
          "lat": 47.6831,
          "lon": 14.9121
        }
      },
      "epsg": 4326
    },
    {
      "name": "inspire-wg:SKH_Carbon_Mitigation_En_Cy_Housing",
      "title": "Carbon Mitigation (Housing)",
      "bbox": {
        "sw": {
          "lat": -30,
          "lon": -120
        },
        "ne": {
          "lat": 53,
          "lon": 138
        }
      },
      "epsg": 4326
    },
    {
      "name": "inspire-wg:SKH_Carbon_Mitigation_En_Cy_International",
      "title": "Carbon Mitigation (International)",
      "bbox": {
        "sw": {
          "lat": 9.9709,
          "lon": -83.9461
        },
        "ne": {
          "lat": 9.9711,
          "lon": -83.9459
        }
      },
      "epsg": 4326
    },
    {
      "name": "inspire-wg:SKH_Carbon_Mitigation_En_Cy_Jobs",
      "title": "Carbon Mitigation (Jobs)",
      "bbox": {
        "sw": {
          "lat": 39.9999,
          "lon": -74.5001
        },
        "ne": {
          "lat": 40.0001,
          "lon": -74.4999
        }
      },
      "epsg": 4326
    },
    {
      "name": "inspire-wg:SKH_Carbon_Mitigation_En_Cy_Public_Sector",
      "title": "Carbon Mitigation (Public Sector)",
      "bbox": {
        "sw": {
          "lat": 50.9999,
          "lon": -125.0001
        },
        "ne": {
          "lat": 51.0001,
          "lon": -124.9999
        }
      },
      "epsg": 4326
    },
    {
      "name": "inspire-wg:SKH_Carbon_Mitigation_En_Cy_Transport",
      "title": "Carbon Mitigation (Transport)",
      "bbox": {
        "sw": {
          "lat": -22,
          "lon": -122
        },
        "ne": {
          "lat": 62.011,
          "lon": 145
        }
      },
      "epsg": 4326
    },
    {
      "name": "inspire-wg:SKH_Carbon_Mitigation_En_Cy_Waste",
      "title": "Carbon Mitigation (Waste)",
      "bbox": {
        "sw": {
          "lat": 52.5,
          "lon": -110
        },
        "ne": {
          "lat": 59,
          "lon": -4
        }
      },
      "epsg": 4326
    },
    {
      "name": "inspire-wg:SKH_Carbon_Mitigation_En_Cy",
      "title": "Carbon Mitigation Measures (En &amp; Cy)",
      "bbox": {
        "sw": {
          "lat": -39.505054473877,
          "lon": -126.514999389648
        },
        "ne": {
          "lat": 62.516056060791,
          "lon": 179.514999389648
        }
      },
      "epsg": 4326
    },
    {
      "name": "inspire-wg:Careers_Wales_Regions",
      "title": "Careers_Wales_Regions",
      "bbox": {
        "sw": {
          "lat": 51.32330112270059,
          "lon": -5.813461321199867
        },
        "ne": {
          "lat": 53.45869889188102,
          "lon": -2.643478007494532
        }
      },
      "epsg": 27700
    },
    {
      "name": "appdata-wg-marine:cefas_nursery_anglerfish_2010",
      "title": "Cefas Nursery Areas  - Anglerfish (2010)",
      "bbox": {
        "sw": {
          "lat": 50.9266166687012,
          "lon": -7.06895780563354
        },
        "ne": {
          "lat": 53.9989433288574,
          "lon": -2.63455963134766
        }
      },
      "epsg": 4326
    },
    {
      "name": "appdata-wg-marine:cefas_nursery_spotted_ray_2010",
      "title": "Cefas Nursery Areas  - Spotted Ray (2010)",
      "bbox": {
        "sw": {
          "lat": 51.2937622070313,
          "lon": -5.51213026046753
        },
        "ne": {
          "lat": 53.8695411682129,
          "lon": -3.06184244155884
        }
      },
      "epsg": 4326
    },
    {
      "name": "appdata-wg-marine:cefas_nursery_blue_whiting_2010",
      "title": "Cefas Nursery Areas - Blue Whiting (2010)",
      "bbox": {
        "sw": {
          "lat": 50.941828227,
          "lon": -7.04700490499994
        },
        "ne": {
          "lat": 51.833333296,
          "lon": -6
        }
      },
      "epsg": 4326
    },
    {
      "name": "appdata-wg-marine:cefas_nursery_cod_2010",
      "title": "Cefas Nursery Areas - Cod (2010)",
      "bbox": {
        "sw": {
          "lat": 51.5,
          "lon": -6.29999999199993
        },
        "ne": {
          "lat": 53.9837333030001,
          "lon": -3.07397260899995
        }
      },
      "epsg": 4326
    },
    {
      "name": "appdata-wg-marine:cefas_nursery_hake_2010",
      "title": "Cefas Nursery Areas - Hake (2010)",
      "bbox": {
        "sw": {
          "lat": 50.941828227,
          "lon": -7.04700490499994
        },
        "ne": {
          "lat": 52,
          "lon": -5
        }
      },
      "epsg": 4326
    },
    {
      "name": "appdata-wg-marine:cefas_nursery_herring_2010",
      "title": "Cefas Nursery Areas - Herring (2010)",
      "bbox": {
        "sw": {
          "lat": 51.5,
          "lon": -5
        },
        "ne": {
          "lat": 53.8567871060001,
          "lon": -3.07397260899995
        }
      },
      "epsg": 4326
    },
    {
      "name": "appdata-wg-marine:cefas_nursery_ling_2010",
      "title": "Cefas Nursery Areas - Ling (2010)",
      "bbox": {
        "sw": {
          "lat": 50.941828227,
          "lon": -7.04700490499994
        },
        "ne": {
          "lat": 51.833333296,
          "lon": -6
        }
      },
      "epsg": 4326
    },
    {
      "name": "appdata-wg-marine:cefas_nursery_mackerel_2010",
      "title": "Cefas Nursery Areas - Mackerel (2010)",
      "bbox": {
        "sw": {
          "lat": 50.9266166687012,
          "lon": -7.06474018096924
        },
        "ne": {
          "lat": 53.9989433288574,
          "lon": -3.48226499557495
        }
      },
      "epsg": 4326
    },
    {
      "name": "appdata-wg-marine:cefas_nursery_plaice_2010",
      "title": "Cefas Nursery Areas - Plaice (2010)",
      "bbox": {
        "sw": {
          "lat": 51.2734718322754,
          "lon": -5.01171731948853
        },
        "ne": {
          "lat": 53.8696403503418,
          "lon": -2.64479446411133
        }
      },
      "epsg": 4326
    },
    {
      "name": "appdata-wg-marine:cefas_nursery_sandeel_2010",
      "title": "Cefas Nursery Areas - Sandeel (2010)",
      "bbox": {
        "sw": {
          "lat": 51.3516612820001,
          "lon": -5
        },
        "ne": {
          "lat": 53.8567871060001,
          "lon": -3.07397260899995
        }
      },
      "epsg": 4326
    },
    {
      "name": "appdata-wg-marine:cefas_nursery_sole_2010",
      "title": "Cefas Nursery Areas - Sole (2010)",
      "bbox": {
        "sw": {
          "lat": 51.2863236430001,
          "lon": -5
        },
        "ne": {
          "lat": 53.8567871060001,
          "lon": -3
        }
      },
      "epsg": 4326
    },
    {
      "name": "appdata-wg-marine:cefas_nursery_spurdog_2010",
      "title": "Cefas Nursery Areas - Spurdog (2010)",
      "bbox": {
        "sw": {
          "lat": 53.5,
          "lon": -5.31666668999998
        },
        "ne": {
          "lat": 53.9837333030001,
          "lon": -3.5
        }
      },
      "epsg": 4326
    },
    {
      "name": "appdata-wg-marine:cefas_nursery_thornback_ray_2010",
      "title": "Cefas Nursery Areas - Thornback Ray (2010)",
      "bbox": {
        "sw": {
          "lat": 51.1697044372559,
          "lon": -6.0149998664856
        },
        "ne": {
          "lat": 53.8701553344727,
          "lon": -2.98499989509583
        }
      },
      "epsg": 4326
    },
    {
      "name": "appdata-wg-marine:cefas_nursery_tope_2010",
      "title": "Cefas Nursery Areas - Tope (2010)",
      "bbox": {
        "sw": {
          "lat": 50.9839820861816,
          "lon": -6.01463031768799
        },
        "ne": {
          "lat": 53.9986572265625,
          "lon": -3.05934238433838
        }
      },
      "epsg": 4326
    },
    {
      "name": "appdata-wg-marine:cefas_nursery_whiting_2010",
      "title": "Cefas Nursery Areas - Whiting (2010)",
      "bbox": {
        "sw": {
          "lat": 50.9266166687012,
          "lon": -7.0672402381897
        },
        "ne": {
          "lat": 53.9989433288574,
          "lon": -2.97976493835449
        }
      },
      "epsg": 4326
    },
    {
      "name": "appdata-wg-marine:cefas_spawning_hake_2010",
      "title": "Cefas Spawning Areas  - Hake (2010)",
      "bbox": {
        "sw": {
          "lat": 50.941828227,
          "lon": -7
        },
        "ne": {
          "lat": 53.8729250980001,
          "lon": -4.5
        }
      },
      "epsg": 4326
    },
    {
      "name": "appdata-wg-marine:cefas_spawning_mackerel_2010",
      "title": "Cefas Spawning Areas  - Mackerel (2010)",
      "bbox": {
        "sw": {
          "lat": 50.9266166687012,
          "lon": -7.0672402381897
        },
        "ne": {
          "lat": 53.9989433288574,
          "lon": -2.97976493835449
        }
      },
      "epsg": 4326
    },
    {
      "name": "appdata-wg-marine:cefas_spawning_cod_2010",
      "title": "Cefas Spawning Areas - Cod (2010)",
      "bbox": {
        "sw": {
          "lat": 50.9266166687012,
          "lon": -7.01999998092651
        },
        "ne": {
          "lat": 53.9989433288574,
          "lon": -2.98000001907349
        }
      },
      "epsg": 4326
    },
    {
      "name": "appdata-wg-marine:cefas_spawning_horse_mackerel_2010",
      "title": "Cefas Spawning Areas - Horse Mackerel (2010)",
      "bbox": {
        "sw": {
          "lat": 50.941828227,
          "lon": -7.04700490499994
        },
        "ne": {
          "lat": 53.9837333030001,
          "lon": -4
        }
      },
      "epsg": 4326
    },
    {
      "name": "appdata-wg-marine:cefas_spawning_ling_2010",
      "title": "Cefas Spawning Areas - Ling (2010)",
      "bbox": {
        "sw": {
          "lat": 50.9266166687012,
          "lon": -7.01749992370605
        },
        "ne": {
          "lat": 53.9989433288574,
          "lon": -3.48250007629395
        }
      },
      "epsg": 4326
    },
    {
      "name": "appdata-wg-marine:cefas_spawning_plaice_2010",
      "title": "Cefas Spawning Areas - Plaice (2010)",
      "bbox": {
        "sw": {
          "lat": 51.1690673828125,
          "lon": -5.51213026046753
        },
        "ne": {
          "lat": 53.9977378845215,
          "lon": -3.06184244155884
        }
      },
      "epsg": 4326
    },
    {
      "name": "appdata-wg-marine:cefas_spawning_sandeel_2010",
      "title": "Cefas Spawning Areas - Sandeel( 2010)",
      "bbox": {
        "sw": {
          "lat": 50.9266166687012,
          "lon": -6.51713037490845
        },
        "ne": {
          "lat": 53.9989433288574,
          "lon": -3.05684232711792
        }
      },
      "epsg": 4326
    },
    {
      "name": "appdata-wg-marine:cefas_spawning_sole_2010",
      "title": "Cefas Spawning Areas - Sole (2010)",
      "bbox": {
        "sw": {
          "lat": 50.9266166687012,
          "lon": -6.51713037490845
        },
        "ne": {
          "lat": 53.9989433288574,
          "lon": -3.05684232711792
        }
      },
      "epsg": 4326
    },
    {
      "name": "appdata-wg-marine:cefas_spawning_whiting_2010",
      "title": "Cefas Spawning Areas - Whiting (2010)",
      "bbox": {
        "sw": {
          "lat": 50.9266166687012,
          "lon": -6.51749992370605
        },
        "ne": {
          "lat": 53.9989433288574,
          "lon": -2.98250007629395
        }
      },
      "epsg": 4326
    },
    {
      "name": "inspire-wg:centres_of_excellence",
      "title": "Centres of Excellence",
      "bbox": {
        "sw": {
          "lat": 51.495821906267714,
          "lon": -3.2121247671051
        },
        "ne": {
          "lat": 51.49584018293311,
          "lon": -3.212095486860849
        }
      },
      "epsg": 27700
    },
    {
      "name": "inspire-wg:Coastal_Focus_Draft_Dev_Plan",
      "title": "Coastal_Focus_Draft_Dev_Plan",
      "bbox": {
        "sw": {
          "lat": 51.32378323566581,
          "lon": -5.813365079139652
        },
        "ne": {
          "lat": 53.45870046943395,
          "lon": -2.6435253255365234
        }
      },
      "epsg": 27700
    },
    {
      "name": "inspire-wg:mobile_coverage_scoring_commercial",
      "title": "Commercial Premises",
      "bbox": {
        "sw": {
          "lat": 51.325656989439615,
          "lon": -5.473523396184521
        },
        "ne": {
          "lat": 53.45803378118493,
          "lon": -2.6440447333387533
        }
      },
      "epsg": 27700
    },
    {
      "name": "appdata-wg-marine:rspb_ud_cogu",
      "title": "Common Guillemot 95% Utilisation Distributions in 5% Bands",
      "bbox": {
        "sw": {
          "lat": 51.292236613696,
          "lon": -6.29999998060072
        },
        "ne": {
          "lat": 53.8728716655293,
          "lon": -3.58528706999994
        }
      },
      "epsg": 4326
    },
    {
      "name": "inspire-wg:Communities1st_Clusters",
      "title": "Communities1st_Clusters",
      "bbox": {
        "sw": {
          "lat": 51.36095425332799,
          "lon": -5.0965308868545325
        },
        "ne": {
          "lat": 53.34436649397399,
          "lon": -2.9188939061860877
        }
      },
      "epsg": 27700
    },
    {
      "name": "inspire-wg:Communities_First_2010",
      "title": "Communities_First_2010",
      "bbox": {
        "sw": {
          "lat": 51.343496411107296,
          "lon": -5.058914516104682
        },
        "ne": {
          "lat": 53.43857409486917,
          "lon": -2.9185222934970887
        }
      },
      "epsg": 27700
    },
    {
      "name": "inspire-wg:Community_Wards",
      "title": "Community Wards",
      "bbox": {
        "sw": {
          "lat": 51.33125309406955,
          "lon": -5.537239197362927
        },
        "ne": {
          "lat": 53.45878952602106,
          "lon": -2.643506354138534
        }
      },
      "epsg": 27700
    },
    {
      "name": "inspire-wg:Community_Parishes",
      "title": "Community_Parishes",
      "bbox": {
        "sw": {
          "lat": 51.32335338957608,
          "lon": -5.813374522729723
        },
        "ne": {
          "lat": 53.458789423697404,
          "lon": -2.6435192724250602
        }
      },
      "epsg": 27700
    },
    {
      "name": "inspire-wg:conservation_areas",
      "title": "Conservation Areas (Wales)",
      "bbox": {
        "sw": {
          "lat": 51.33650995968495,
          "lon": -5.4043690895438194
        },
        "ne": {
          "lat": 53.44762808526832,
          "lon": -2.6496977183923702
        }
      },
      "epsg": 27700
    },
    {
      "name": "inspire-wg:Convergence_AssistedAreas_Tier1",
      "title": "Convergence_AssistedAreas_Tier1",
      "bbox": {
        "sw": {
          "lat": 51.424890931862976,
          "lon": -5.813366734036647
        },
        "ne": {
          "lat": 53.456424929849824,
          "lon": -2.955665362305914
        }
      },
      "epsg": 27700
    },
    {
      "name": "inspire-wg:Convergence_AssistedAreas_Tier2",
      "title": "Convergence_AssistedAreas_Tier2",
      "bbox": {
        "sw": {
          "lat": 51.366230885458165,
          "lon": -3.8740179596424276
        },
        "ne": {
          "lat": 53.36621808587643,
          "lon": -2.8058922227895176
        }
      },
      "epsg": 27700
    },
    {
      "name": "inspire-wg:Courts_England_wales",
      "title": "Courts_England_wales",
      "bbox": {
        "sw": {
          "lat": 49.82009079113379,
          "lon": -6.9291075794577734
        },
        "ne": {
          "lat": 55.769044871379066,
          "lon": 2.059292424046549
        }
      },
      "epsg": 27700
    },
    {
      "name": "inspire-wg:draft_active_travel_in_lines",
      "title": "DRAFT Active Travel Integrated Network Lines",
      "bbox": {
        "sw": {
          "lat": -43.63269889530981,
          "lon": -5.180092781415514
        },
        "ne": {
          "lat": 53.43412871615072,
          "lon": 10.467438509793787
        }
      },
      "epsg": 27700
    },
    {
      "name": "inspire-wg:draft_active_travel_in_points",
      "title": "DRAFT Active Travel Integrated Network Points",
      "bbox": {
        "sw": {
          "lat": 51.453968586663436,
          "lon": -3.725888787705048
        },
        "ne": {
          "lat": 51.74712775734413,
          "lon": -3.0865028779490276
        }
      },
      "epsg": 27700
    },
    {
      "name": "inspire-wg:dentists",
      "title": "Dentists",
      "bbox": {
        "sw": {
          "lat": 51.34768612203176,
          "lon": -5.1676063865193695
        },
        "ne": {
          "lat": 53.44637115610608,
          "lon": -2.6538543205136853
        }
      },
      "epsg": 27700
    },
    {
      "name": "inspire-wg:Dentists",
      "title": "Dentists",
      "bbox": {
        "sw": {
          "lat": 51.35252534542541,
          "lon": -5.376833656770166
        },
        "ne": {
          "lat": 53.43609656340389,
          "lon": -2.6657436036936937
        }
      },
      "epsg": 27700
    },
    {
      "name": "appdata-wg-marine:cefas_disposal_sites",
      "title": "Disposal Sites - Cefas",
      "bbox": {
        "sw": {
          "lat": 46.931468963623,
          "lon": -14.1327257156372
        },
        "ne": {
          "lat": 60.7743644714355,
          "lon": 4.26800060272217
        }
      },
      "epsg": 4326
    },
    {
      "name": "appdata-wg-marine:draft_aggregates_ra",
      "title": "Draft Aggregates RA",
      "bbox": {
        "sw": {
          "lat": 50.85771492,
          "lon": -5.85664657799992
        },
        "ne": {
          "lat": 54.660665416,
          "lon": -2.69305961699996
        }
      },
      "epsg": 4326
    },
    {
      "name": "appdata-wg-marine:draft_anchorage_sra",
      "title": "Draft Anchorage SRA",
      "bbox": {
        "sw": {
          "lat": 51.3777193000001,
          "lon": -5.33342697799998
        },
        "ne": {
          "lat": 53.497386308,
          "lon": -2.69152379999997
        }
      },
      "epsg": 4326
    },
    {
      "name": "appdata-wg-marine:draft_aquaculture_ra",
      "title": "Draft Aquaculture Resource Areas",
      "bbox": {
        "sw": {
          "lat": 51.360744487,
          "lon": -5.68317998299995
        },
        "ne": {
          "lat": 53.6337565160001,
          "lon": -2.67936379399993
        }
      },
      "epsg": 4326
    },
    {
      "name": "appdata-wg-marine:draft_aquaculture_sra",
      "title": "Draft Aquaculture Strategic Resource Areas",
      "bbox": {
        "sw": {
          "lat": 51.425048828125,
          "lon": -5.37754344940186
        },
        "ne": {
          "lat": 53.5447196960449,
          "lon": -3.63922524452209
        }
      },
      "epsg": 4326
    },
    {
      "name": "appdata-wg-marine:draft_harbour_areas_sra",
      "title": "Draft Harbour Areas SRA",
      "bbox": {
        "sw": {
          "lat": 51.3538200000001,
          "lon": -5.26791569999995
        },
        "ne": {
          "lat": 53.5281844080002,
          "lon": -2.65651207499991
        }
      },
      "epsg": 4326
    },
    {
      "name": "appdata-wg-marine:draft_nationalgrid_hvlines",
      "title": "Draft National Grid High Voltage Lines",
      "bbox": {
        "sw": {
          "lat": 50.349006652832,
          "lon": -5.02441501617432
        },
        "ne": {
          "lat": 55.6894264221191,
          "lon": 1.65289378166199
        }
      },
      "epsg": 4326
    },
    {
      "name": "appdata-wg-marine:draft_pilot_boarding_sra",
      "title": "Draft Pilot Boarding SRA",
      "bbox": {
        "sw": {
          "lat": 51.3278258,
          "lon": -5.27110844999993
        },
        "ne": {
          "lat": 53.4529122420001,
          "lon": -3.24994249999997
        }
      },
      "epsg": 4326
    },
    {
      "name": "appdata-wg-marine:draft_shipping_sra",
      "title": "Draft Shipping SRA",
      "bbox": {
        "sw": {
          "lat": 50.9917988240002,
          "lon": -6.03332867899996
        },
        "ne": {
          "lat": 53.9610318410002,
          "lon": -2.65651207499991
        }
      },
      "epsg": 4326
    },
    {
      "name": "appdata-wg-marine:draft_swanseabay_tidallagoon",
      "title": "Draft Swansea Bay Tidal Lagoon",
      "bbox": {
        "sw": {
          "lat": 51.5673757700001,
          "lon": -3.94661768099996
        },
        "ne": {
          "lat": 51.62454388,
          "lon": -3.82209777099996
        }
      },
      "epsg": 4326
    },
    {
      "name": "appdata-wg-marine:draft_tidalrange_ra",
      "title": "Draft Tidal Range Resource Area",
      "bbox": {
        "sw": {
          "lat": 51.2752227783203,
          "lon": -5.28805017471313
        },
        "ne": {
          "lat": 53.5178985595703,
          "lon": -2.65192031860352
        }
      },
      "epsg": 4326
    },
    {
      "name": "appdata-wg-marine:draft_tidalrange_sra",
      "title": "Draft Tidal Range Strategic Resource Area",
      "bbox": {
        "sw": {
          "lat": 51.2863236430001,
          "lon": -4.14999994399994
        },
        "ne": {
          "lat": 53.457811216,
          "lon": -2.69889658999995
        }
      },
      "epsg": 4326
    },
    {
      "name": "appdata-wg-marine:draft_tidalstream_ra",
      "title": "Draft Tidal Stream Energy Resource Area",
      "bbox": {
        "sw": {
          "lat": 51.2887728090001,
          "lon": -5.62476442099995
        },
        "ne": {
          "lat": 53.583584036,
          "lon": -2.67661913299997
        }
      },
      "epsg": 4326
    },
    {
      "name": "appdata-wg-marine:draft_tidalstream_sra",
      "title": "Draft Tidal Stream Energy Strategic Resource Area",
      "bbox": {
        "sw": {
          "lat": 51.2924129880001,
          "lon": -5.52361425199996
        },
        "ne": {
          "lat": 53.4815783240001,
          "lon": -3.28855201299996
        }
      },
      "epsg": 4326
    },
    {
      "name": "appdata-wg-marine:draft_wave_ra",
      "title": "Draft Wave Energy Resource Area",
      "bbox": {
        "sw": {
          "lat": 50.941828227,
          "lon": -7.04700490499994
        },
        "ne": {
          "lat": 52.2222412030001,
          "lon": -4.66586270899995
        }
      },
      "epsg": 4326
    },
    {
      "name": "appdata-wg-marine:draft_wave_sra",
      "title": "Draft Wave Energy Startegic Resource Area",
      "bbox": {
        "sw": {
          "lat": 51.212073725,
          "lon": -5.42059511899993
        },
        "ne": {
          "lat": 51.4791566100001,
          "lon": -4.66582748099995
        }
      },
      "epsg": 4326
    },
    {
      "name": "appdata-wg-marine:draft_wind_energy_ra",
      "title": "Draft Wind Energy Resource Area",
      "bbox": {
        "sw": {
          "lat": 51.1016490660001,
          "lon": -6.37513520899995
        },
        "ne": {
          "lat": 54.0177656490001,
          "lon": -2.88375255899996
        }
      },
      "epsg": 4326
    },
    {
      "name": "inspire-wg:Dragon_Ride_Horse_Trail",
      "title": "Dragon Ride Horse Trail",
      "bbox": {
        "sw": {
          "lat": 51.544691946869484,
          "lon": -4.091983588280125
        },
        "ne": {
          "lat": 53.35765809273467,
          "lon": -3.0756051423372837
        }
      },
      "epsg": 27700
    },
    {
      "name": "inspire-wg:EFZ_Regional_Competitiveness",
      "title": "EFZ_Regional_Competitiveness",
      "bbox": {
        "sw": {
          "lat": 51.36483454764906,
          "lon": -3.964446942378801
        },
        "ne": {
          "lat": 53.36300829061572,
          "lon": -2.6434503307690873
        }
      },
      "epsg": 27700
    },
    {
      "name": "inspire-wg:eia_screenings",
      "title": "EIA Screenings",
      "bbox": {
        "sw": {
          "lat": 51.35153610456115,
          "lon": -5.4245554959816324
        },
        "ne": {
          "lat": 53.45402269248974,
          "lon": -2.693320737790083
        }
      },
      "epsg": 27700
    },
    {
      "name": "inspire-wg:Electoral_Divisions",
      "title": "Electoral_Divisions",
      "bbox": {
        "sw": {
          "lat": 51.32335338957608,
          "lon": -5.813374522729723
        },
        "ne": {
          "lat": 53.458789423697404,
          "lon": -2.6435192724250602
        }
      },
      "epsg": 27700
    },
    {
      "name": "inspire-wg:ecas_in_enterprise_zones",
      "title": "Enhanced Capital Allowance areas (in EZs)",
      "bbox": {
        "sw": {
          "lat": 51.55443271869672,
          "lon": -5.097498802337176
        },
        "ne": {
          "lat": 53.22436143738854,
          "lon": -2.9631878452156095
        }
      },
      "epsg": 27700
    },
    {
      "name": "inspire-wg:enterprise_zones",
      "title": "Enterprise Zones",
      "bbox": {
        "sw": {
          "lat": 51.35723977294625,
          "lon": -5.215609017374781
        },
        "ne": {
          "lat": 53.41523558798316,
          "lon": -2.9171145345817138
        }
      },
      "epsg": 27700
    },
    {
      "name": "inspire-wg:fuel_poverty_by_lsoa_geom_vw",
      "title": "Estimated Fuel poverty by LSOA",
      "bbox": {
        "sw": {
          "lat": 51.32378976764875,
          "lon": -5.813146144595325
        },
        "ne": {
          "lat": 53.45870267663705,
          "lon": -2.643456191470625
        }
      },
      "epsg": 27700
    },
    {
      "name": "appdata-wg-marine:rspb_ud_eush",
      "title": "European Shag 95% Utilisation Distributions in 5% Bands",
      "bbox": {
        "sw": {
          "lat": 51.574267138,
          "lon": -5.49753954199997
        },
        "ne": {
          "lat": 53.4467940100001,
          "lon": -3.89086873799994
        }
      },
      "epsg": 4326
    },
    {
      "name": "appdata-wg-marine:Experimental_aquaculture_area",
      "title": "Experimental Aquaculture Area",
      "bbox": {
        "sw": {
          "lat": 53.3090666666667,
          "lon": -3.991666
        },
        "ne": {
          "lat": 53.31121667,
          "lon": -3.98805
        }
      },
      "epsg": 4326
    },
    {
      "name": "inspire-wg:moj_Female_Offenders_by_LA",
      "title": "Female Offender Rates (by LA)",
      "bbox": {
        "sw": {
          "lat": 51.3233533928544,
          "lon": -5.813374524652676
        },
        "ne": {
          "lat": 53.45878942259626,
          "lon": -2.643519270160552
        }
      },
      "epsg": 27700
    },
    {
      "name": "inspire-wg:fire_stations",
      "title": "Fire Stations",
      "bbox": {
        "sw": {
          "lat": 51.37506892110012,
          "lon": -5.37845786237563
        },
        "ne": {
          "lat": 53.42906727436196,
          "lon": -2.6764650972586552
        }
      },
      "epsg": 27700
    },
    {
      "name": "inspire-wg:Fire_Authorities",
      "title": "Fire and Rescue Service Areas",
      "bbox": {
        "sw": {
          "lat": 51.32378319126504,
          "lon": -5.8133667352807175
        },
        "ne": {
          "lat": 53.458702674670775,
          "lon": -2.6434563711780927
        }
      },
      "epsg": 27700
    },
    {
      "name": "inspire-wg:Fire_Fatalities_2009_2015",
      "title": "Fire_Fatalities_2009_2015",
      "bbox": {
        "sw": {
          "lat": 51.35540214555063,
          "lon": -5.255245713725452
        },
        "ne": {
          "lat": 53.44489631880097,
          "lon": -2.6597644645353564
        }
      },
      "epsg": 27700
    },
    {
      "name": "inspire-wg:fuel_poverty_by_la_geom_vw",
      "title": "Fuel Poverty by LA",
      "bbox": {
        "sw": {
          "lat": 51.32378974047095,
          "lon": -5.8131461283272206
        },
        "ne": {
          "lat": 53.458702674670775,
          "lon": -2.643456371178087
        }
      },
      "epsg": 27700
    },
    {
      "name": "appdata-wg:Fusion_Pioneer_Areas",
      "title": "Fusion: Pioneer Areas",
      "bbox": {
        "sw": {
          "lat": 49.81819939330706,
          "lon": -9.23063680749877
        },
        "ne": {
          "lat": 60.86355836832326,
          "lon": 2.7017811505420553
        }
      },
      "epsg": 27700
    },
    {
      "name": "inspire-wg:GA_PA_Line",
      "title": "GA_PA_Line",
      "bbox": {
        "sw": {
          "lat": 51.38098867811291,
          "lon": -5.154882953062553
        },
        "ne": {
          "lat": 53.308092869547266,
          "lon": -2.8114819131115616
        }
      },
      "epsg": 27700
    },
    {
      "name": "inspire-wg:GA_PA_POLY_new",
      "title": "GA_PA_POLY",
      "bbox": {
        "sw": {
          "lat": 51.404860259954674,
          "lon": -5.32563893807794
        },
        "ne": {
          "lat": 53.39457429419295,
          "lon": -2.6773626433510214
        }
      },
      "epsg": 27700
    },
    {
      "name": "inspire-wg:GE_PA_POLY_singlepart",
      "title": "GE_PA_POLY_singlepart",
      "bbox": {
        "sw": {
          "lat": 51.470349258206085,
          "lon": -5.389215437512321
        },
        "ne": {
          "lat": 53.353434586982026,
          "lon": -2.745985152866251
        }
      },
      "epsg": 27700
    },
    {
      "name": "inspire-wg:gp_surgeries_2018",
      "title": "GP Surgeries",
      "bbox": {
        "sw": {
          "lat": 51.357331463643305,
          "lon": -5.166529954841733
        },
        "ne": {
          "lat": 53.442684471114234,
          "lon": -2.616697838177455
        }
      },
      "epsg": 27700
    },
    {
      "name": "inspire-wg:gp_surgeries_subbranch_2018",
      "title": "GP Surgeries (Subbranch)",
      "bbox": {
        "sw": {
          "lat": 51.34572341539679,
          "lon": -5.22766751605831
        },
        "ne": {
          "lat": 53.44366260330479,
          "lon": -2.648518651857351
        }
      },
      "epsg": 27700
    },
    {
      "name": "inspire-wg:GWC_NRW_SensitiveHabitats",
      "title": "GWC NRW Sensitive Habitats",
      "bbox": {
        "sw": {
          "lat": 51.28574415616468,
          "lon": -5.486592880657376
        },
        "ne": {
          "lat": 53.46307043838222,
          "lon": -2.6582633578238917
        }
      },
      "epsg": 27700
    },
    {
      "name": "inspire-wg:GWC_AirQuality",
      "title": "GWC_AirQuality",
      "bbox": {
        "sw": {
          "lat": 51.3238221680664,
          "lon": -5.81316962269159
        },
        "ne": {
          "lat": 53.45866289097489,
          "lon": -2.6434970583965947
        }
      },
      "epsg": 27700
    },
    {
      "name": "inspire-wg:GWC_ArablePlants",
      "title": "GWC_ArablePlants",
      "bbox": {
        "sw": {
          "lat": 51.339117795941455,
          "lon": -5.469082550497706
        },
        "ne": {
          "lat": 53.3648151049806,
          "lon": -2.713559006161968
        }
      },
      "epsg": 27700
    },
    {
      "name": "inspire-wg:GWC_CommunitiesFirst",
      "title": "GWC_CommunitiesFirst",
      "bbox": {
        "sw": {
          "lat": 51.32378974049121,
          "lon": -5.813147651637536
        },
        "ne": {
          "lat": 53.45871963988571,
          "lon": -2.6434707150646193
        }
      },
      "epsg": 27700
    },
    {
      "name": "inspire-wg:GWC_Fritillaries",
      "title": "GWC_Fritillaries",
      "bbox": {
        "sw": {
          "lat": 51.35146785323447,
          "lon": -5.468591900951682
        },
        "ne": {
          "lat": 53.36843927168752,
          "lon": -2.6389938085312226
        }
      },
      "epsg": 27700
    },
    {
      "name": "inspire-wg:GWC_HistoricLandscapeArea",
      "title": "GWC_HistoricLandscapeArea",
      "bbox": {
        "sw": {
          "lat": 51.36213782361352,
          "lon": -5.472407786526455
        },
        "ne": {
          "lat": 53.44094685142215,
          "lon": -2.6438602840120535
        }
      },
      "epsg": 27700
    },
    {
      "name": "inspire-wg:GWC_RedSquirrelArea",
      "title": "GWC_RedSquirrelArea",
      "bbox": {
        "sw": {
          "lat": 52.046177691533394,
          "lon": -4.042749888304376
        },
        "ne": {
          "lat": 53.158613442971365,
          "lon": -3.3120846209738715
        }
      },
      "epsg": 27700
    },
    {
      "name": "inspire-wg:GWC_SPA500mBuffer",
      "title": "GWC_SPA500mBuffer",
      "bbox": {
        "sw": {
          "lat": 52.039024409829096,
          "lon": -3.9543319257277574
        },
        "ne": {
          "lat": 53.06048730339132,
          "lon": -3.1624555988539447
        }
      },
      "epsg": 27700
    },
    {
      "name": "inspire-wg:glastir_active",
      "title": "Glastir Active",
      "bbox": {
        "sw": {
          "lat": 51.361445219420624,
          "lon": -5.472542244234618
        },
        "ne": {
          "lat": 53.448054041128685,
          "lon": -2.654808070044977
        }
      },
      "epsg": 27700
    },
    {
      "name": "inspire-wg:glastir_management_ga",
      "title": "Glastir Advanced",
      "bbox": {
        "sw": {
          "lat": 51.37646097034746,
          "lon": -5.407365366891457
        },
        "ne": {
          "lat": 53.43798975598037,
          "lon": -2.6737753957323354
        }
      },
      "epsg": 27700
    },
    {
      "name": "inspire-wg:glastir_management_gae",
      "title": "Glastir Advanced and Entry",
      "bbox": {
        "sw": {
          "lat": 51.361445219420624,
          "lon": -5.472542244234618
        },
        "ne": {
          "lat": 53.448054041128685,
          "lon": -2.654808070044977
        }
      },
      "epsg": 27700
    },
    {
      "name": "inspire-wg:glastir_management_common",
      "title": "Glastir Management Common",
      "bbox": {
        "sw": {
          "lat": 51.41466012928611,
          "lon": -5.370072091578722
        },
        "ne": {
          "lat": 53.303006242621876,
          "lon": -2.972620794178015
        }
      },
      "epsg": 27700
    },
    {
      "name": "inspire-wg:glastir_management_org",
      "title": "Glastir Organics",
      "bbox": {
        "sw": {
          "lat": 51.37473389359572,
          "lon": -5.472318593363766
        },
        "ne": {
          "lat": 53.445195324353826,
          "lon": -2.673056413933059
        }
      },
      "epsg": 27700
    },
    {
      "name": "inspire-wg:glastir_management_gwc",
      "title": "Glastir Woodland Creation",
      "bbox": {
        "sw": {
          "lat": 51.56939778816377,
          "lon": -5.334194437373814
        },
        "ne": {
          "lat": 53.423234682443805,
          "lon": -2.6934173212208634
        }
      },
      "epsg": 27700
    },
    {
      "name": "inspire-wg:HLMO_Adopted_dev_plans",
      "title": "HLMO_Adopted_dev_plans",
      "bbox": {
        "sw": {
          "lat": 51.32378323566581,
          "lon": -5.813365079139652
        },
        "ne": {
          "lat": 53.45870046943395,
          "lon": -2.6435253255365234
        }
      },
      "epsg": 27700
    },
    {
      "name": "inspire-wg:hmq_smoking_cessation_services",
      "title": "HMQ Smoking Cessation Services",
      "bbox": {
        "sw": {
          "lat": 51.36226674528408,
          "lon": -5.3803316221297495
        },
        "ne": {
          "lat": 53.43532500051887,
          "lon": -2.6715547489005
        }
      },
      "epsg": 27700
    },
    {
      "name": "inspire-wg:Habitat_Networks_BUA_500mbuffer",
      "title": "Habitat_Networks_BUA_500mbuffer",
      "bbox": {
        "sw": {
          "lat": 51.34391736749201,
          "lon": -5.398130854024374
        },
        "ne": {
          "lat": 53.44784837452893,
          "lon": -2.6537766958922093
        }
      },
      "epsg": 27700
    },
    {
      "name": "appdata-wg-marine:harbour_areas",
      "title": "Harbour Areas",
      "bbox": {
        "sw": {
          "lat": 51.3538527,
          "lon": -5.2679157
        },
        "ne": {
          "lat": 53.653586,
          "lon": -2.5
        }
      },
      "epsg": 4326
    },
    {
      "name": "inspire-wg:Hospitals",
      "title": "Hospitals",
      "bbox": {
        "sw": {
          "lat": 51.383950991511846,
          "lon": -5.067340955759077
        },
        "ne": {
          "lat": 53.33972997617776,
          "lon": -2.6833354367009523
        }
      },
      "epsg": 27700
    },
    {
      "name": "inspire-wg:NAP_ind_lden",
      "title": "Industrial Noise (Day-Evening-Night average)",
      "bbox": {
        "sw": {
          "lat": 51.45358659439891,
          "lon": -4.028345944986444
        },
        "ne": {
          "lat": 51.711005806719484,
          "lon": -2.938352219984152
        }
      },
      "epsg": 27700
    },
    {
      "name": "inspire-wg:ind_lden_2017",
      "title": "Industrial Noise (Day-Evening-Night average) 2017",
      "bbox": {
        "sw": {
          "lat": 51.45273328684294,
          "lon": -4.038583034676819
        },
        "ne": {
          "lat": 51.71286027545569,
          "lon": -2.9149794752049925
        }
      },
      "epsg": 27700
    },
    {
      "name": "inspire-wg:NAP_ind_lday",
      "title": "Industrial Noise (Daytime average)",
      "bbox": {
        "sw": {
          "lat": 51.45395181406177,
          "lon": -4.027887745150533
        },
        "ne": {
          "lat": 51.708285552604686,
          "lon": -2.941238397133195
        }
      },
      "epsg": 27700
    },
    {
      "name": "inspire-wg:ind_lday_2017",
      "title": "Industrial Noise (Daytime average) 2017",
      "bbox": {
        "sw": {
          "lat": 51.45301470047344,
          "lon": -4.033488464619593
        },
        "ne": {
          "lat": 51.709529976582395,
          "lon": -2.9359830889377436
        }
      },
      "epsg": 27700
    },
    {
      "name": "inspire-wg:NAP_ind_leve",
      "title": "Industrial Noise (Evening average)",
      "bbox": {
        "sw": {
          "lat": 51.45395181406177,
          "lon": -4.027887745150533
        },
        "ne": {
          "lat": 51.708285552604686,
          "lon": -2.941238397133195
        }
      },
      "epsg": 27700
    },
    {
      "name": "inspire-wg:ind_leve_2017",
      "title": "Industrial Noise (Evening average) 2017",
      "bbox": {
        "sw": {
          "lat": 51.45301470047344,
          "lon": -4.033488464619593
        },
        "ne": {
          "lat": 51.709529976582395,
          "lon": -2.9359830889377436
        }
      },
      "epsg": 27700
    },
    {
      "name": "inspire-wg:NAP_ind_lq16",
      "title": "Industrial Noise (LAeq, 16h)",
      "bbox": {
        "sw": {
          "lat": 51.45395181406177,
          "lon": -4.027887745150533
        },
        "ne": {
          "lat": 51.708285552604686,
          "lon": -2.941238397133195
        }
      },
      "epsg": 27700
    },
    {
      "name": "inspire-wg:ind_lq16_2017",
      "title": "Industrial Noise (LAeq, 16h) 2017",
      "bbox": {
        "sw": {
          "lat": 51.45301470047344,
          "lon": -4.033488464619593
        },
        "ne": {
          "lat": 51.709529976582395,
          "lon": -2.9359830889377436
        }
      },
      "epsg": 27700
    },
    {
      "name": "inspire-wg:NAP_ind_lngt",
      "title": "Industrial Noise (Nightly average)",
      "bbox": {
        "sw": {
          "lat": 51.45376802198611,
          "lon": -4.028157756365046
        },
        "ne": {
          "lat": 51.70902104832195,
          "lon": -2.939219545894725
        }
      },
      "epsg": 27700
    },
    {
      "name": "inspire-wg:ind_lngt_2017",
      "title": "Industrial Noise (Nightly average) 2017",
      "bbox": {
        "sw": {
          "lat": 51.45290857063752,
          "lon": -4.034210844151722
        },
        "ne": {
          "lat": 51.71034708898731,
          "lon": -2.935543497777315
        }
      },
      "epsg": 27700
    },
    {
      "name": "appdata-wg:vwInnovationHubs",
      "title": "Innovation Hubs",
      "bbox": {
        "sw": {
          "lat": 51.43656974123298,
          "lon": -5.264866016136228
        },
        "ne": {
          "lat": 53.255932492582836,
          "lon": -0.0884755777894694
        }
      },
      "epsg": 4326
    },
    {
      "name": "appdata-wg-marine:ireland_polyregion",
      "title": "Ireland Polyregion",
      "bbox": {
        "sw": {
          "lat": 51.4245570000001,
          "lon": -10.6181109999999
        },
        "ne": {
          "lat": 55.4349710000001,
          "lon": -5.43461099899997
        }
      },
      "epsg": 4326
    },
    {
      "name": "appdata-wg-marine:jncc_ospar_mpa_wales",
      "title": "JNCC_OSPAR_MPA_WALES",
      "bbox": {
        "sw": {
          "lat": 50.2431439279352,
          "lon": -6.07207547851948
        },
        "ne": {
          "lat": 53.9316747295728,
          "lon": -2.37930516013824
        }
      },
      "epsg": 4326
    },
    {
      "name": "appdata-wg-marine:jncc_spa_marine_wales",
      "title": "JNCC_SPA_MARINE_WALES",
      "bbox": {
        "sw": {
          "lat": 51.1623679091452,
          "lon": -6.07207549880848
        },
        "ne": {
          "lat": 54.0061482344157,
          "lon": -2.37729043287864
        }
      },
      "epsg": 4326
    },
    {
      "name": "inspire-wg:JGC_Areas",
      "title": "Joint Governance Committee Areas",
      "bbox": {
        "sw": {
          "lat": 51.32378319126505,
          "lon": -5.8133667352807095
        },
        "ne": {
          "lat": 53.458702266489475,
          "lon": -2.6435253253438327
        }
      },
      "epsg": 27700
    },
    {
      "name": "inspire-wg:moj_Juvenile_Offenders_by_LA",
      "title": "Juvenile Offender Rates (by LA)",
      "bbox": {
        "sw": {
          "lat": 51.3233533928544,
          "lon": -5.813374524652676
        },
        "ne": {
          "lat": 53.45878942259626,
          "lon": -2.643519270160552
        }
      },
      "epsg": 27700
    },
    {
      "name": "inspire-wg:KWT_Community_Groups",
      "title": "KWT_Community_Groups",
      "bbox": {
        "sw": {
          "lat": 51.5200751951745,
          "lon": -3.898754092841914
        },
        "ne": {
          "lat": 51.80418018814846,
          "lon": -2.9910198534104744
        }
      },
      "epsg": 27700
    },
    {
      "name": "inspire-wg:KWT_Green_Flag_Award_Locations",
      "title": "KWT_Green_Flag_Award_Locations",
      "bbox": {
        "sw": {
          "lat": 51.53852289075148,
          "lon": -3.8080614717592955
        },
        "ne": {
          "lat": 51.81218839758647,
          "lon": -2.9988848079563915
        }
      },
      "epsg": 27700
    },
    {
      "name": "inspire-wg:KWT_Green_Flag_Community_Award_Locations",
      "title": "KWT_Green_Flag_Community_Award_Locations",
      "bbox": {
        "sw": {
          "lat": 51.56914115753712,
          "lon": -4.042244294802343
        },
        "ne": {
          "lat": 51.801589524843614,
          "lon": -3.050065768344397
        }
      },
      "epsg": 27700
    },
    {
      "name": "inspire-wg:KWT_Litter_Champions",
      "title": "KWT_Litter_Champions",
      "bbox": {
        "sw": {
          "lat": 51.51542813182877,
          "lon": -3.8829832821007058
        },
        "ne": {
          "lat": 51.804919884806424,
          "lon": -2.993393681470363
        }
      },
      "epsg": 27700
    },
    {
      "name": "inspire-wg:KWT_Natural_Buzz_2015_Selection",
      "title": "KWT_Natural_Buzz_2015_Selection",
      "bbox": {
        "sw": {
          "lat": 51.5611643525987,
          "lon": -4.041362362350722
        },
        "ne": {
          "lat": 51.801590779951496,
          "lon": -2.9847340523222017
        }
      },
      "epsg": 27700
    },
    {
      "name": "inspire-wg:KWT_Natural_Buzz_2016_Selection",
      "title": "KWT_Natural_Buzz_2016_Selection",
      "bbox": {
        "sw": {
          "lat": 51.527689530051475,
          "lon": -3.8230847533742844
        },
        "ne": {
          "lat": 51.78725691963329,
          "lon": -3.021948600856273
        }
      },
      "epsg": 27700
    },
    {
      "name": "inspire-wg:KWT_Spring_Clean_Campaign_2017",
      "title": "KWT_Spring_Clean_Campaign_2017",
      "bbox": {
        "sw": {
          "lat": 51.53706639311341,
          "lon": -3.816785348836529
        },
        "ne": {
          "lat": 51.79650417991778,
          "lon": -3.002891009542426
        }
      },
      "epsg": 27700
    },
    {
      "name": "inspire-wg:Keep_Wales_Tidy_Case_Studies",
      "title": "Keep_Wales_Tidy_Case_Studies",
      "bbox": {
        "sw": {
          "lat": 51.51785617954039,
          "lon": -3.506990255763614
        },
        "ne": {
          "lat": 51.803992364034606,
          "lon": -2.991510696897468
        }
      },
      "epsg": 27700
    },
    {
      "name": "inspire-wg:LA_Employment_Rates",
      "title": "LA_Employment_Rates",
      "bbox": {
        "sw": {
          "lat": 51.32378319126504,
          "lon": -5.8133667352807175
        },
        "ne": {
          "lat": 53.458702266489475,
          "lon": -2.6435253253438256
        }
      },
      "epsg": 27700
    },
    {
      "name": "inspire-wg:LA_ILO_Unemployment_Rates",
      "title": "LA_ILO_Unemployment_Rates",
      "bbox": {
        "sw": {
          "lat": 51.32378319126504,
          "lon": -5.8133667352807175
        },
        "ne": {
          "lat": 53.458702266489475,
          "lon": -2.6435253253438256
        }
      },
      "epsg": 27700
    },
    {
      "name": "inspire-wg:LA_Inactivity_Rates_exc_students",
      "title": "LA_Inactivity_Rates_exc_students",
      "bbox": {
        "sw": {
          "lat": 51.32378319126504,
          "lon": -5.8133667352807175
        },
        "ne": {
          "lat": 53.458702266489475,
          "lon": -2.6435253253438256
        }
      },
      "epsg": 27700
    },
    {
      "name": "inspire-wg:LA_Inactivity_Rates_inc_students",
      "title": "LA_Inactivity_Rates_inc_students",
      "bbox": {
        "sw": {
          "lat": 51.32378319126504,
          "lon": -5.8133667352807175
        },
        "ne": {
          "lat": 53.458702266489475,
          "lon": -2.6435253253438256
        }
      },
      "epsg": 27700
    },
    {
      "name": "inspire-wg:LSOA_business_density",
      "title": "LSOA_business_density",
      "bbox": {
        "sw": {
          "lat": 51.312941777156674,
          "lon": -5.829738217801499
        },
        "ne": {
          "lat": 53.46918940130415,
          "lon": -2.6283216125655953
        }
      },
      "epsg": 27700
    },
    {
      "name": "inspire-wg:lsoa_cars_household",
      "title": "LSOA_cars_household",
      "bbox": {
        "sw": {
          "lat": 51.312941777156674,
          "lon": -5.829738217801499
        },
        "ne": {
          "lat": 53.46918940130415,
          "lon": -2.6283216125655953
        }
      },
      "epsg": 27700
    },
    {
      "name": "inspire-wg:Life_Sciences_businesses",
      "title": "Life Sciences - Businesses",
      "bbox": {
        "sw": {
          "lat": 51.375406845327255,
          "lon": -5.053662572781409
        },
        "ne": {
          "lat": 53.332092838087895,
          "lon": -2.6570481628384583
        }
      },
      "epsg": 27700
    },
    {
      "name": "inspire-wg:Life_Sciences_Centres_Excellence",
      "title": "Life Sciences - Centres of Excellence",
      "bbox": {
        "sw": {
          "lat": 51.463384668458545,
          "lon": -4.19365193051832
        },
        "ne": {
          "lat": 53.27095305175671,
          "lon": -3.1575669964024526
        }
      },
      "epsg": 27700
    },
    {
      "name": "inspire-wg:Lifeboat_Stations",
      "title": "Lifeboat_Stations",
      "bbox": {
        "sw": {
          "lat": 51.35437939278225,
          "lon": -5.419696944194357
        },
        "ne": {
          "lat": 53.37019585937283,
          "lon": -3.0821941455798956
        }
      },
      "epsg": 27700
    },
    {
      "name": "inspire-wg:Link_ATM_OA",
      "title": "Link_ATM_OA",
      "bbox": {
        "sw": {
          "lat": 51.37260663945225,
          "lon": -4.422782753827764
        },
        "ne": {
          "lat": 53.066884877406075,
          "lon": -2.986292523882728
        }
      },
      "epsg": 27700
    },
    {
      "name": "inspire-wg:local_health_boards",
      "title": "Local Health Boards",
      "bbox": {
        "sw": {
          "lat": 51.3128825981248,
          "lon": -5.830053407177887
        },
        "ne": {
          "lat": 53.46918390896004,
          "lon": -2.6283478620101923
        }
      },
      "epsg": 27700
    },
    {
      "name": "inspire-wg:Local_Authorities",
      "title": "Local_Authorities",
      "bbox": {
        "sw": {
          "lat": 51.32378323566581,
          "lon": -5.813365079139652
        },
        "ne": {
          "lat": 53.45870046943395,
          "lon": -2.6435253255365234
        }
      },
      "epsg": 27700
    },
    {
      "name": "inspire-wg:localauthorities_no_labels",
      "title": "Local_Authorities_no_labels",
      "bbox": {
        "sw": {
          "lat": 51.312935223542105,
          "lon": -5.829958049454857
        },
        "ne": {
          "lat": 53.469187321364025,
          "lon": -2.6283898411179534
        }
      },
      "epsg": 27700
    },
    {
      "name": "appdata-ons:lsoa_wales_2011",
      "title": "Lower Super Output Areas, Wales (2011)",
      "bbox": {
        "sw": {
          "lat": 51.32378976764875,
          "lon": -5.813146144595325
        },
        "ne": {
          "lat": 53.45870267663705,
          "lon": -2.643456191470625
        }
      },
      "epsg": 27700
    },
    {
      "name": "inspire-wg:M4CaN_MainlineWeek47Plan",
      "title": "M4CaN_MainlineWeek47Plan",
      "bbox": {
        "sw": {
          "lat": 51.54468406818715,
          "lon": -3.101794683713935
        },
        "ne": {
          "lat": 51.58957387556656,
          "lon": -2.7906251905852235
        }
      },
      "epsg": 27700
    },
    {
      "name": "appdata-wg-marine:mresf_daysfishedall",
      "title": "MRESF - Days Fished",
      "bbox": {
        "sw": {
          "lat": 44.9049987792969,
          "lon": -20.1100006103516
        },
        "ne": {
          "lat": 64.0950012207031,
          "lon": 2.10999989509583
        }
      },
      "epsg": 4326
    },
    {
      "name": "appdata-wg-marine:mresf_fishingsatellite_wgs84",
      "title": "MRESF - Fishing Satellite Data - WGS84",
      "bbox": {
        "sw": {
          "lat": 47.3341636657715,
          "lon": -20.0070018768311
        },
        "ne": {
          "lat": 63.9991683959961,
          "lon": 1.60699999332428
        }
      },
      "epsg": 4326
    },
    {
      "name": "appdata-wg-marine:mresf_landingsdensitytotalbyw",
      "title": "MRESF - Landings Density by Weight",
      "bbox": {
        "sw": {
          "lat": 44.9039535522461,
          "lon": -20.1452579498291
        },
        "ne": {
          "lat": 64.0959091186523,
          "lon": 9.1477108001709
        }
      },
      "epsg": 4326
    },
    {
      "name": "appdata-wg-marine:tidal_resource_areas",
      "title": "MRESF - Tidal Resource Areas",
      "bbox": {
        "sw": {
          "lat": 51.29916863282119,
          "lon": -5.531839860482847
        },
        "ne": {
          "lat": 53.49635521001921,
          "lon": -2.648056052308015
        }
      },
      "epsg": 32630
    },
    {
      "name": "appdata-wg-marine:tidal_resource_2ms",
      "title": "MRESF - Tidal Resources 2m/s",
      "bbox": {
        "sw": {
          "lat": 51.310192554079,
          "lon": -5.51641278341118
        },
        "ne": {
          "lat": 53.47659025483907,
          "lon": -2.677562598525606
        }
      },
      "epsg": 32630
    },
    {
      "name": "appdata-wg-marine:tide_sp_age",
      "title": "MRESF - Tide - Surface Penetrating",
      "bbox": {
        "sw": {
          "lat": 51.235449731377706,
          "lon": -6.148599842040416
        },
        "ne": {
          "lat": 53.65683589127868,
          "lon": -2.6208841139934234
        }
      },
      "epsg": 32630
    },
    {
      "name": "appdata-wg-marine:tide_ws_age",
      "title": "MRESF - Tide -Wholly Submerged",
      "bbox": {
        "sw": {
          "lat": 51.235449731377706,
          "lon": -6.148599842040416
        },
        "ne": {
          "lat": 53.65683589127868,
          "lon": -2.6208841139934234
        }
      },
      "epsg": 32630
    },
    {
      "name": "appdata-wg-marine:mresf_uk_ports_vessels",
      "title": "MRESF - UK Ports and Vessels",
      "bbox": {
        "sw": {
          "lat": 49.8371963500977,
          "lon": -7.53286695480347
        },
        "ne": {
          "lat": 60.661922454834,
          "lon": 1.7995331287384
        }
      },
      "epsg": 4326
    },
    {
      "name": "appdata-wg-marine:wave_sp_age",
      "title": "MRESF - Wave - Surface Penetrating",
      "bbox": {
        "sw": {
          "lat": 51.235449731377706,
          "lon": -6.148599842040416
        },
        "ne": {
          "lat": 53.65683589127868,
          "lon": -2.6208841139934234
        }
      },
      "epsg": 32630
    },
    {
      "name": "appdata-wg-marine:wave_ws_age",
      "title": "MRESF - Wave - Wholly Submerged",
      "bbox": {
        "sw": {
          "lat": 51.235449731377706,
          "lon": -6.148599842040416
        },
        "ne": {
          "lat": 53.65683589127868,
          "lon": -2.6208841139934234
        }
      },
      "epsg": 32630
    },
    {
      "name": "appdata-wg-marine:wave_resource_areas_sp",
      "title": "MRESF - Wave Resource Areas - SP",
      "bbox": {
        "sw": {
          "lat": 51.38031746907724,
          "lon": -5.730982889557496
        },
        "ne": {
          "lat": 52.11152251654345,
          "lon": -4.32767601610991
        }
      },
      "epsg": 32630
    },
    {
      "name": "appdata-wg-marine:wave_resource_areas_ws",
      "title": "MRESF - Wave Resource Areas - WS",
      "bbox": {
        "sw": {
          "lat": 51.40215391321719,
          "lon": -5.652627899450903
        },
        "ne": {
          "lat": 52.01246315759066,
          "lon": -4.831425697937683
        }
      },
      "epsg": 32630
    },
    {
      "name": "appdata-wg-marine:mresf_magic_magcoast_shellfish",
      "title": "MRESFG - Classified Bivalve Mollusc Harvesting Areas",
      "bbox": {
        "sw": {
          "lat": 50.0410003662109,
          "lon": -5.19251871109009
        },
        "ne": {
          "lat": 55.6903648376465,
          "lon": 1.62956178188324
        }
      },
      "epsg": 4326
    },
    {
      "name": "appdata-wg-marine:MTF_AdministrativeAreas_Anchorage",
      "title": "MTF - AdministrativeAreas - Anchorage Areas",
      "bbox": {
        "sw": {
          "lat": 50.4824981689453,
          "lon": -7.52500009536743
        },
        "ne": {
          "lat": 54.0175018310547,
          "lon": -2.47499966621399
        }
      },
      "epsg": 4326
    },
    {
      "name": "appdata-wg-marine:MTF_AdministrativeAreas_Docks",
      "title": "MTF - AdministrativeAreas - Dock Areas",
      "bbox": {
        "sw": {
          "lat": 50.4824981689453,
          "lon": -7.52500009536743
        },
        "ne": {
          "lat": 54.0175018310547,
          "lon": -2.47499966621399
        }
      },
      "epsg": 4326
    },
    {
      "name": "appdata-wg-marine:MTF_AdministrativeAreas_Dumping",
      "title": "MTF - AdministrativeAreas - Dumping Grounds",
      "bbox": {
        "sw": {
          "lat": 50.5997547,
          "lon": -6.98
        },
        "ne": {
          "lat": 54,
          "lon": -2.725
        }
      },
      "epsg": 4326
    },
    {
      "name": "appdata-wg-marine:MTF_AdministrativeAreas_FisheryZone",
      "title": "MTF - AdministrativeAreas - Fishery Zone (6nm)",
      "bbox": {
        "sw": {
          "lat": 50.4824981689453,
          "lon": -7.52500009536743
        },
        "ne": {
          "lat": 54.0175018310547,
          "lon": -2.47499966621399
        }
      },
      "epsg": 4326
    },
    {
      "name": "appdata-wg-marine:MTF_AdministrativeAreas_FishingGround",
      "title": "MTF - AdministrativeAreas - Fishing Grounds",
      "bbox": {
        "sw": {
          "lat": 50.4824981689453,
          "lon": -7.52500009536743
        },
        "ne": {
          "lat": 54.0175018310547,
          "lon": -2.47499966621399
        }
      },
      "epsg": 4326
    },
    {
      "name": "appdata-wg-marine:MTF_AdministrativeAreas_FreePorts",
      "title": "MTF - AdministrativeAreas - Free Port Areas",
      "bbox": {
        "sw": {
          "lat": 50.4824981689453,
          "lon": -7.52500009536743
        },
        "ne": {
          "lat": 54.0175018310547,
          "lon": -2.47499966621399
        }
      },
      "epsg": 4326
    },